{"data":{"id":"views::mapview","type":"map_view","attributes":{"title":"","user":{"id":"J77LXEEJSAIAG","type":"users","attributes":{"token":"J77LXEEJSAIAG","phone_number":"821087284736","email_address":"ikihwfmm3b@privaterelay.appleid.com","has_verified_email_address":true,"name":"Lime Rider","given_name":"Lime","surname":"Rider","default_payment_method":null,"referral_code":"RLFFGMS","num_trips":0,"edu":false,"subscription_item_states":[],"promotion_notification":true,"donation_profile":{"id":"6GQPAKJLCVTEJ","type":"donation_profiles","attributes":{"donation_type":"none","donation_organizations":[],"total_donation_amount":{"currency_code":"USD","amount":0.0,"amount_str":"0.0","currency_symbol":"$","display_string":"$0"},"total_donation_amount_cents":null,"currency":null}},"pod_vehicle_banner_status":null,"juicer_profile_status":null,"juicer_profile_initial_activated_at":null,"accepted_user_agreement_version":3,"accepted_compliance_version":null,"balance":{"currency_code":"KRW","amount":0.0,"amount_str":"0.0","currency_symbol":"₩","display_string":"₩0"},"pending_balance":{"currency_code":"USD","amount":0.0,"amount_str":"0.0","currency_symbol":"$","display_string":"$0"},"new_juicer_earnings_amount":{"currency_code":"EUR","amount":0.0,"amount_str":"0.0","currency_symbol":"€","display_string":"€0"},"new_juicer_earnings_promo_amount":"0","new_juicer_earnings_promo_amount_cents":0,"new_juicer_earnings_promo_amount_cent":0,"new_juicer_earnings_promo_currency":"EUR","juicer_referral_type":null,"juicer_referral_code":null,"juicer_referral_amount":null,"juicer_referral_amount_cents":null,"juicer_referral_currency":null,"balance_cents":0,"pending_balance_cents":0,"currency":"USD","show_group_ride":true,"id_verification_pending":false,"current_rental_id":null}},"regions":null,"zones":[{"id":"SG6K5BJ7VXCUE","type":"zones","attributes":{"name":"Berlin - [NPZ] Treptower","polyline":"wyk_IomdqA~LlJdKxDru@{oAeYux@uArLgF|IuFrAeFnHeGxOeGfb@mLl_@","category":"no_parking_zone","icon_latitude":"52.488055","icon_longitude":"13.471125","show_icon":false,"zone_styling_id":"1"}},{"id":"HATCM55YN6KPP","type":"zones","attributes":{"name":"Berlin - [NPZ] Volkspark Friedrichshain","polyline":"ikr_Iyc}pAvC}JzDgHhCuE|BwDdCuEtByEn@kDGqNoAaMuB]D_CZeCoBsKkD|CaCmNRuA|AwBeFqGcBpAoSbUrLbUcDtEzG|jA","category":"no_parking_zone","icon_latitude":"52.527175","icon_longitude":"13.435755","show_icon":false,"zone_styling_id":"1"}},{"id":"6GDFDNVXSKTSU","type":"zones","attributes":{"name":"Berlin - [NPZ] Tiergarten sudost","polyline":"apo_IgqnpApS_FEwTIo\\i@_YoEoc@oFse@iPqCi@jDbHfrCvCfJ","category":"no_parking_zone","icon_latitude":"52.512915","icon_longitude":"13.363875","show_icon":false,"zone_styling_id":"1"}},{"id":"HSSWN5HQXWHMQ","type":"zones","attributes":{"name":"Berlin - [NPZ] Volkspark Hasenheide","polyline":"ggj_Igt|pAvX?b@tLvH?f@rIuNblAeNgAcIoHuHz@nHimAlBcL","category":"no_parking_zone","icon_latitude":"52.484435","icon_longitude":"13.414805","show_icon":false,"zone_styling_id":"1"}},{"id":"UFOEV3AQB4QWA","type":"zones","attributes":{"name":"Berlin - [NPZ] Mauerpark","polyline":"}xt_I{zxpAs@wEq@{FuAeMiB|@EQYaCo@aGeAsJCMGGO?i@VmA^iBv@}DzAmGjCLlBVnCj@lHj@hGoCx@wBp@`@vHV~Gl@lNFbBJRFpBdCu@PEBk@l@]dA}ApAS@LTlAvCU|ACfAy@rAaAhAm@LXdGcFTr@HZlBuAu@{Dw@aE","category":"no_parking_zone","icon_latitude":"52.54344","icon_longitude":"13.405295","show_icon":false,"zone_styling_id":"1"}},{"id":"NTVDZNTYRUFOR","type":"zones","attributes":{"name":"Berlin - [NPZ] Schillerpark","polyline":"azw_I}wopA{DhIsAqC}@oDbBsBSe@eBXEwBVi@u@oD[_Cq@aEm@JZrBcDfADxEtB~K{CdCXtAlDkDlA|ArClLLzG[??lCmAvBa@i@g@v@|B`EnBfBrA`BbAzDnP{]iOmW","category":"no_parking_zone","icon_latitude":"52.556405","icon_longitude":"13.354475","show_icon":false,"zone_styling_id":"1"}},{"id":"NEA24D35C75J2","type":"zones","attributes":{"name":"Berlin - [NPZ] Mondhügel","polyline":"otk_Iiq`qAsGaKcYnnAR~CfBS\\{DxAiA~BtBdVibA","category":"no_parking_zone","icon_latitude":"52.496455","icon_longitude":"13.4381","show_icon":false,"zone_styling_id":"1"}},{"id":"PWHPC7ELYLMU6","type":"zones","attributes":{"name":"Berlin - [NPZ] Humboltdhain","polyline":"{ov_IuqupA~BbQrV|\\~MaXeMuo@yUlPuDdG@B","category":"no_parking_zone","icon_latitude":"52.545855","icon_longitude":"13.38488","show_icon":false,"zone_styling_id":"1"}},{"id":"FTRL76MSNINWZ","type":"zones","attributes":{"name":"Berlin - [NPZ] Fritzschloss-park","polyline":"e~r_IcaopAbDiEt@Sf@bAjGwE`AhCzBgBMqAlBkAV`AbGyEgIs^_Bv@kBcIoYxRp@nNfFzW","category":"no_parking_zone","icon_latitude":"52.52904","icon_longitude":"13.358115","show_icon":false,"zone_styling_id":"1"}},{"id":"3SBMWED2IW5MY","type":"zones","attributes":{"name":"BR: Humboldthai","polyline":"yzu_I{ttpAxAgGjBbDj@bCxAt@~B|D~FgLkByIeJkf@qUdP@fV`BvFdGrJjB_D","category":"no_parking_zone","icon_latitude":"52.54528","icon_longitude":"13.385755","show_icon":false,"zone_styling_id":"1"}},{"id":"4RVJ6VVQDGCTF","type":"zones","attributes":{"name":"Berlin - [NPZ] Tiergarten sudwest","polyline":"uyn_IiqnpA}TnDqBhGxBj_AzH~@vI}Q}Hi]~I_^","category":"no_parking_zone","icon_latitude":"52.51191","icon_longitude":"13.34436","show_icon":false,"zone_styling_id":"1"}},{"id":"BG5O6YE3CZ3NS","type":"zones","attributes":{"name":"Berlin - [NPZ] Tiergarten nordost","polyline":"g`p_IcgrpAmH}CExAlAnB_@pd@LpNdCzRi@jOnI|SsDqnB","category":"no_parking_zone","icon_latitude":"52.51636","icon_longitude":"13.36108","show_icon":false,"zone_styling_id":"1"}},{"id":"LMC54PZDDDBZI","type":"zones","attributes":{"name":"Berlin - [NPZ] Tivoliplatz","polyline":"myj_I_tspA|WYn@kJKwBsHCOyGyBGVeI_@kHL{AoDiA]|EgA`DmE}@zAxf@","category":"no_parking_zone","icon_latitude":"52.48746","icon_longitude":"13.38079","show_icon":false,"zone_styling_id":"1"}},{"id":"5VHIPEIJC2WQT","type":"zones","attributes":{"name":"Berlin - [NPZ] Urnenfreidhof seestrasse","polyline":"oxv_IixnpAcUkh@uFdMfVva@jAuCl@v@vAuC","category":"no_parking_zone","icon_latitude":"52.553025","icon_longitude":"13.354595","show_icon":false,"zone_styling_id":"1"}},{"id":"ECWDMEZQC6HPI","type":"zones","attributes":{"name":"Berlin - [NPZ] Schillerpark 3","polyline":"ohx_IgsnpAuMdYzKjRxMcYs@qCe@cAu@u@qBiB_DwF","category":"no_parking_zone","icon_latitude":"52.558455","icon_longitude":"13.347435","show_icon":false,"zone_styling_id":"1"}},{"id":"NBAEL2IZX3AFU","type":"zones","attributes":{"name":"Berlin - [NPZ] TIERGARTEN 2","polyline":"cxo_IcfnpAkCpGsC`JnA|BlAnb@i@hCzAxBp@f@r@Tn@?`@Gl@E^?qCi`Ac@kB","category":"no_parking_zone","icon_latitude":"52.515005","icon_longitude":"13.34345","show_icon":false,"zone_styling_id":"1"}},{"id":"XORFA6OCBAIPS","type":"zones","attributes":{"name":"Berlin - [NPZ] Bocklerpark","polyline":"unl_IslypAtFlE^eBAgDRaEf@eE|@{I@gAVmCb@aBj@iIA{GW?DdIg@vFeAlAkAG[jBjAr@_BbH{C\\uAbHExH","category":"no_parking_zone","icon_latitude":"52.495349999999995","icon_longitude":"13.41357","show_icon":false,"zone_styling_id":"1"}},{"id":"DE7SYP3UXCBOA","type":"zones","attributes":{"name":"Berlin - [NPZ] ENGLISCHER GARTEN","polyline":"qzo_IofnpAcJ~XsCyAHgA_@qGDcAb@yCXkBbAsHlDv@F{@^}AVuAj@_ArAlCPnD?fDFBAB","category":"no_parking_zone","icon_latitude":"52.51644","icon_longitude":"13.348185","show_icon":false,"zone_styling_id":"1"}},{"id":"J2QSH56BZ3VHN","type":"zones","attributes":{"name":"Berlin - [NPZ] Sommerbad Kreuzberg","polyline":"iol_IcmwpApDyZ|AaZ_@_Ao@a@mFwDAxv@n@|F","category":"no_parking_zone","icon_latitude":"52.49741","icon_longitude":"13.40127","show_icon":false,"zone_styling_id":"1"}},{"id":"UZRERXUA2CDW4","type":"zones","attributes":{"name":"Berlin - [NPZ] BABEL PLTZ","polyline":"wep_I{kvpAbEa@M{MDmDE]`Dg@MuKiLpA~Av`@","category":"no_parking_zone","icon_latitude":"52.5163","icon_longitude":"13.393755","show_icon":false,"zone_styling_id":"1"}},{"id":"C75K6JWYFHD6X","type":"zones","attributes":{"name":"Berlin - [NPZ] Freidhofsverwaltung","polyline":"qcl_IgewpA@lGz@|R~BxCnBbBnAbA]oLq@sYoHt@","category":"no_parking_zone","icon_latitude":"52.49514","icon_longitude":"13.39198","show_icon":false,"zone_styling_id":"1"}},{"id":"2NE4B7POA3KKW","type":"zones","attributes":{"name":"Berlin - [NPZ] Hackische Höfe","polyline":"_xq_I}wxpAlEdDRtDAjHiNjEpEgRt@kF","category":"no_parking_zone","icon_latitude":"52.52506","icon_longitude":"13.4009","show_icon":false,"zone_styling_id":"1"}},{"id":"5XB4Z5VDDXTJF","type":"zones","attributes":{"name":"Berlin - [NPZ] Bundestag","polyline":"_}p_Ia|qpAxE`MK}WDoWaFFAvOLhQ","category":"no_parking_zone","icon_latitude":"52.520135","icon_longitude":"13.369555","show_icon":false,"zone_styling_id":"1"}},{"id":"ZHKEAFCVUVL6W","type":"zones","attributes":{"name":"Berlin - [NPZ] Kleiner Tiergarten","polyline":"w_r_IwbmpArAXhA\\hCe`@oDmAM`BaB@?hPAvEEvE","category":"no_parking_zone","icon_latitude":"52.52546","icon_longitude":"13.34589","show_icon":false,"zone_styling_id":"1"}},{"id":"TCJIBRG6Y2PHA","type":"zones","attributes":{"name":"Berlin - [NPZ] Lustgarten","polyline":"_up_I_vwpA|HcGAwAmBwHsDpD{CbD`BtF`@fA","category":"no_parking_zone","icon_latitude":"52.51889","icon_longitude":"13.39925","show_icon":false,"zone_styling_id":"1"}},{"id":"RDZ3H2SZY6IBA","type":"zones","attributes":{"name":"Berlin - [NPZ] Brandenburger Tor","polyline":"ehp_IsjtpAdG{AlA~Ry@Vk@dBg@TW[y@}@g@CkAwQ","category":"no_parking_zone","icon_latitude":"52.51646","icon_longitude":"13.37891","show_icon":false,"zone_styling_id":"1"}},{"id":"SKU7FER257BSM","type":"zones","attributes":{"name":"Berlin - [NPZ] Ottopark","polyline":"ywq_ImqkpAwDaV?Sq@Tk@HIxBZPZvLp@@DXEjC~Cp@Bk@RY","category":"no_parking_zone","icon_latitude":"52.525645","icon_longitude":"13.337145","show_icon":false,"zone_styling_id":"1"}},{"id":"4AIMHBLCKGORB","type":"zones","attributes":{"name":"Berlin - [NPZ] Berline Dom","polyline":"myp_Ii`xpA`BaBx@{@vD_EkAoEsAbAaA|@wAtBuAbDz@pC","category":"no_parking_zone","icon_latitude":"52.51937","icon_longitude":"13.400645","show_icon":false,"zone_styling_id":"1"}},{"id":"MPPJE6CSCCMQA","type":"zones","attributes":{"name":"Berlin - [NPZ] Denkmal für die ermordeten Juden","polyline":"ymo_ImwspAkBcPKBoEhBNx@RdIbHt@","category":"no_parking_zone","icon_latitude":"52.51391","icon_longitude":"13.37872","show_icon":false,"zone_styling_id":"1"}},{"id":"JADGX4N37FXEU","type":"zones","attributes":{"name":"Berlin - [NPZ] Kongress Area","polyline":"_~p_Iqe{pAv@aAzAiB_@k@KMg@s@y@cAUWu@tDe@o@kAu@YhAbEnEJJ@?","category":"no_parking_zone","icon_latitude":"52.520955","icon_longitude":"13.416385","show_icon":false,"zone_styling_id":"1"}},{"id":"V5USPAI7UL7JI","type":"zones","attributes":{"name":"Berlin - [NPZ] Keliner Tiergarten 2","polyline":"{_r_Is`mpAKxNnBTv@yM{Cs@","category":"no_parking_zone","icon_latitude":"52.52586","icon_longitude":"13.34166","show_icon":false,"zone_styling_id":"1"}},{"id":"BZRCIWWS5FHUL","type":"zones","attributes":{"name":"Berlin - [NPZ] Ernst-Reuter-Platz","polyline":"cmo_I}whpAJVVJn@Jr@QVo@L_@Fg@@w@C{@Gg@Ki@Ya@UU[G]BYLOPUb@On@Gl@?j@Dt@Hr@Tb@","category":"no_parking_zone","icon_latitude":"52.512605","icon_longitude":"13.32187","show_icon":false,"zone_styling_id":"1"}},{"id":"YNT5HNPV2BXLB","type":"zones","attributes":{"name":"Berlin - [NPZ] Rocket Tower","polyline":"ifn_IwvvpAnBSQaIoBRP`I","category":"no_parking_zone","icon_latitude":"52.506535","icon_longitude":"13.393455","show_icon":false,"zone_styling_id":"1"}},{"id":"XG2IJAAINFGUZ","type":"zones","attributes":{"name":"Berlin - [NPZ] Sperlingsgasse","polyline":"_uo_ImlxpA]{BuC~CVbBzCgC","category":"no_parking_zone","icon_latitude":"52.51469","icon_longitude":"13.40116","show_icon":false,"zone_styling_id":"1"}},{"id":"CSR6I76AGB54X","type":"zones","attributes":{"name":"Berthold Brecht Platz","polyline":"_gq_I}nupAz@uAu@yAs@j@l@bC","category":"no_parking_zone","icon_latitude":"52.522205","icon_longitude":"13.38667","show_icon":false,"zone_styling_id":"1"}},{"id":"OB5QM6R2XQLXA","type":"zones","attributes":{"name":"Berlin - [NPZ] Heinjrich-Heine-Straße","polyline":"cbo_Iqc{pAKzFnAw@hAbElCuIcFuCu@bB","category":"no_parking_zone","icon_latitude":"52.51054","icon_longitude":"13.4144","show_icon":false,"zone_styling_id":"1"}},{"id":"AT2USP3CQUMOY","type":"zones","attributes":{"name":"am Zoo","polyline":"uco_IipkpA~OtFLgAsNcMy@tG","category":"no_parking_zone","icon_latitude":"52.510075","icon_longitude":"13.33533","show_icon":false,"zone_styling_id":"1"}},{"id":"EBRQ2BIJVWIK4","type":"zones","attributes":{"name":"Berlin - [NPZ] Michaelkirchplatz","polyline":"mnn_Ie{{pAzGlE|AwI{GoE_BxI","category":"no_parking_zone","icon_latitude":"52.50713","icon_longitude":"13.41926","show_icon":false,"zone_styling_id":"1"}},{"id":"VETKWK2TLTQCK","type":"zones","attributes":{"name":"Berlin - [NPZ] Engelbecken","polyline":"ebn_I}~{pAwAbIxDbCvA{@nDpBTqAkDkC]kCUY_DyB","category":"no_parking_zone","icon_latitude":"52.50537","icon_longitude":"13.418235","show_icon":false,"zone_styling_id":"1"}},{"id":"FSGGJMPUQ4KX2","type":"zones","attributes":{"name":"Berlin - [NPZ] Adalbertstraße","polyline":"_bn_Iy_|pA|@j@vBuLDaA_Ao@GbAQjAaBjJ","category":"no_parking_zone","icon_latitude":"52.50561","icon_longitude":"13.42081","show_icon":false,"zone_styling_id":"1"}},{"id":"CCDKHLEEVSSRT","type":"zones","attributes":{"name":"Bundesministerium des Innern, für Bau und Heimat","polyline":"akq_I_bqpARkCx@NB_As@_@l@aEpDpFdAbClAfCf@`BA~RMb@kL{X@m@","category":"no_parking_zone","icon_latitude":"52.52179","icon_longitude":"13.36254","show_icon":false,"zone_styling_id":"1"}},{"id":"UKEU2GMDJP6C5","type":"zones","attributes":{"name":"Berlin - [NPZ] Köpenickerstraße","polyline":"c~m_Iep|pA~@j@H{B?qAAu@EsAIsAKmAGo@Is@Mq@Mo@Mg@I]GUIWOc@a@}@]q@We@[e@W]SUOQUSOQOIMKWQ[SMI??Of@K^GT?@HDHFHDJFNJJFHFJFJFHHHFJJJJJLFFJLLPHJJRJNLTHPFLFJFLDLLTFPJXHTFRFXDVFTFZH^F`@Fb@D\\BZBZB`@Bd@@d@@f@@f@?\\?\\?f@Al@Ah@","category":"no_parking_zone","icon_latitude":"52.505089999999996","icon_longitude":"13.422669999999998","show_icon":false,"zone_styling_id":"1"}},{"id":"TXBFXXBZYXEP3","type":"zones","attributes":{"name":"Bundeskanzleramt","polyline":"udq_IecrpAbC`CjA|Az@tC`AxBTvBb@rAHJbBGA{a@u@B@u@AoAI_@IQiCGW?STMXMv@AhCuEbJ","category":"no_parking_zone","icon_latitude":"52.520615","icon_longitude":"13.36871","show_icon":false,"zone_styling_id":"1"}},{"id":"RCPXUYLBXVKBX","type":"zones","attributes":{"name":"Berlin - [NPZ] Annenstraße","polyline":"qrn_IcozpAnDzGV{BoAwB|@iCwAcB}AdE","category":"no_parking_zone","icon_latitude":"52.50823","icon_longitude":"13.411645","show_icon":false,"zone_styling_id":"1"}},{"id":"G7PD7NMCSPAGC","type":"zones","attributes":{"name":"Auswärtiges Amt","polyline":"{_p_IabxpArAbJ`KoEbA}@Ri@pEuM_BgDwJ~IiHrF","category":"no_parking_zone","icon_latitude":"52.514065","icon_longitude":"13.400125","show_icon":false,"zone_styling_id":"1"}},{"id":"YXPMJWC7BAHYC","type":"zones","attributes":{"name":"Berlin - [NPZ] Annenstraße - 2","polyline":"ktn_IopzpAzEbJaAdDiEwLEMl@oAFJ","category":"no_parking_zone","icon_latitude":"52.508605","icon_longitude":"13.410805","show_icon":false,"zone_styling_id":"1"}},{"id":"K3BMDNQW7FC72","type":"zones","attributes":{"name":"Bundesministerium der Justiz und Verbraucherschutz","polyline":"_jo_IecwpASsKfEc@VpKmEd@","category":"no_parking_zone","icon_latitude":"52.51202","icon_longitude":"13.39569","show_icon":false,"zone_styling_id":"1"}},{"id":"B5BT35PPK4R56","type":"zones","attributes":{"name":"Berlin - [NPZ] Alte Jakobstraße","polyline":"{{n_IefzpAgApAx@pHjBjDt@q@qC}N","category":"no_parking_zone","icon_latitude":"52.51003","icon_longitude":"13.40903","show_icon":false,"zone_styling_id":"1"}},{"id":"HRBP4F26GZVTX","type":"zones","attributes":{"name":"Berlin - [NPZ] Luisenstädtischer Kirchpark Spielplatz","polyline":"yxn_IgtypAdDtFHUfBqB|BuKIkAeFtEcD|C","category":"no_parking_zone","icon_latitude":"52.508715","icon_longitude":"13.407875","show_icon":false,"zone_styling_id":"1"}},{"id":"DWGNPUJJJPQ46","type":"zones","attributes":{"name":"Berlin - [NPZ] Spittelkolonnaden","polyline":"y`o_IogxpArCu@f@f@NbMmDn@]cN","category":"no_parking_zone","icon_latitude":"52.5105","icon_longitude":"13.39932","show_icon":false,"zone_styling_id":"1"}},{"id":"RV3NJQRXNLJ6Z","type":"zones","attributes":{"name":"Berlin - [NPZ] Schinkelplatz","polyline":"ibp_I}_xpA`@~CcFVK?lEwD","category":"no_parking_zone","icon_latitude":"52.5168","icon_longitude":"13.39873","show_icon":false,"zone_styling_id":"1"}},{"id":"QSLIXXVONZ3DF","type":"zones","attributes":{"name":"Berlin - [NPZ] Gendarmenmarkt","polyline":"uxo_IsmvpAzN_BS}I??}NnATnJ","category":"no_parking_zone","icon_latitude":"52.513615","icon_longitude":"13.39225","show_icon":false,"zone_styling_id":"1"}},{"id":"3UEG7RZH5T3TX","type":"zones","attributes":{"name":"Berlin - [NPZ] Bebelplatz","polyline":"ugp_I}zvpAKgErG_@HtEqGP","category":"no_parking_zone","icon_latitude":"52.516575","icon_longitude":"13.39385","show_icon":false,"zone_styling_id":"1"}},{"id":"ZC5762DLX3AUS","type":"zones","attributes":{"name":"Berlin - [NPZ] Kronprinzenpalais","polyline":"ghp_I}fwpAnEc@M}EmEf@JxE","category":"no_parking_zone","icon_latitude":"52.51683","icon_longitude":"13.395835","show_icon":false,"zone_styling_id":"1"}},{"id":"M6YM4EKWM3Y26","type":"zones","attributes":{"name":"Berlin - [NPZ] Am Zeughaus","polyline":"_kp_IqywpAuEfBkAt@D`@jAs@vEw@HAEwAID","category":"no_parking_zone","icon_latitude":"52.51844","icon_longitude":"13.397705","show_icon":false,"zone_styling_id":"1"}},{"id":"IY6Y3VF5XZBSX","type":"zones","attributes":{"name":"Berlin - [NPZ] Hegelplatz","polyline":"}yp_IyxvpAEoArDcAFxBwDX","category":"no_parking_zone","icon_latitude":"52.51971","icon_longitude":"13.3933","show_icon":false,"zone_styling_id":"1"}},{"id":"LV3RB7APOOSMC","type":"zones","attributes":{"name":"Berlin - [NPZ] Bundesstraße 2","polyline":"qdp_IiktpAJrDw@JX~HfAO@t@~@EAw@fAGSmIy@XIuEQw@UmFMqDEeCMkFEmDQ}FIqDGuCK_DIyCOyCEsCI_BOcCWaBQBA|AHfCvBlhA","category":"no_parking_zone","icon_latitude":"52.51578","icon_longitude":"13.378130000000002","show_icon":false,"zone_styling_id":"1"}},{"id":"G35YAZSBA6SVH","type":"zones","attributes":{"name":"Berlin - [NPZ] Neustädtischer Kirchplatz","polyline":"cop_IadupAK}DlBULzDoBV","category":"no_parking_zone","icon_latitude":"52.51817","icon_longitude":"13.38502","show_icon":false,"zone_styling_id":"1"}},{"id":"IAGOPJAMJIGUB","type":"zones","attributes":{"name":"Berlin - [NPZ] In den Ministergärten","polyline":"amo_IcwspAlA?t@DfHfAQ}Ia@oMeGp@MBUD}DdBnB~P","category":"no_parking_zone","icon_latitude":"52.51218","icon_longitude":"13.378945","show_icon":false,"zone_styling_id":"1"}},{"id":"CP22QGFZWZJDV","type":"zones","attributes":{"name":"Berlin - [NPZ] Leipizer Platz","polyline":"uxn_IiwspAs@DaAwASmFz@eC~@EJhM","category":"no_parking_zone","icon_latitude":"52.510055","icon_longitude":"13.378465","show_icon":false,"zone_styling_id":"1"}},{"id":"R5XJ3PKSRCMY4","type":"zones","attributes":{"name":"Berlin - [NPZ] Bundestag Sud","polyline":"iup_I_orpAdIJDie@wHTSfd@","category":"no_parking_zone","icon_latitude":"52.51858","icon_longitude":"13.373885","show_icon":false,"zone_styling_id":"1"}},{"id":"C7MFT24NRU3K6","type":"zones","attributes":{"name":"Berlin - [NPZ] Willy-Brandt-Straße","polyline":"__q_IckrpAaCbGpBxBN}J","category":"no_parking_zone","icon_latitude":"52.521285","icon_longitude":"13.369305","show_icon":false,"zone_styling_id":"1"}},{"id":"TMMXXKEGGJ7H2","type":"zones","attributes":{"name":"Berlin - [NPZ] Feuerwache Tiergarten","polyline":"sfq_Ig}qpAxHzIEfVkAkAqHyN`AqMHo@","category":"no_parking_zone","icon_latitude":"52.52158","icon_longitude":"13.36532","show_icon":false,"zone_styling_id":"1"}},{"id":"TDJNEU6XNROPM","type":"zones","attributes":{"name":"Berlin - [NPZ] Ulap-Park","polyline":"ukq_IccqpAhA}MiGJ`EnM","category":"no_parking_zone","icon_latitude":"52.523285","icon_longitude":"13.365055","show_icon":false,"zone_styling_id":"1"}},{"id":"RK2WQW7AIC2FF","type":"zones","attributes":{"name":"Berlin - [NPZ] Alt-Moabit","polyline":"{jq_Ia}ppAc@y@wArTo@|Nd@RdCkc@","category":"no_parking_zone","icon_latitude":"52.52329","icon_longitude":"13.360125","show_icon":false,"zone_styling_id":"1"}},{"id":"XHRJIQGH4Z5UR","type":"zones","attributes":{"name":"Berlin - [NPZ] Turmstraße","polyline":"q`r_IwvnpAvHtBUxEwAC}@lNuB@UyX","category":"no_parking_zone","icon_latitude":"52.52555","icon_longitude":"13.34957","show_icon":false,"zone_styling_id":"1"}},{"id":"RZLILSIZXIEEJ","type":"zones","attributes":{"name":"Berlin - [NPZ] Bürgeramt Rathaus Tiergarten","polyline":"{ar_IihlpA_DMS`GbD\\NqG","category":"no_parking_zone","icon_latitude":"52.52699","icon_longitude":"13.33844","show_icon":false,"zone_styling_id":"1"}},{"id":"V2ZP4D5DDEDP4","type":"zones","attributes":{"name":"Berlin - [NPZ] Stephanplatz","polyline":"ins_ImzmpAhDhJR[]q@\\i@k@aCGgBAKgC@","category":"no_parking_zone","icon_latitude":"52.533175","icon_longitude":"13.346215","show_icon":false,"zone_styling_id":"1"}},{"id":"4LPZ5ZNCBZYO7","type":"zones","attributes":{"name":"Berlin - [NPZ] Unionpark","polyline":"_js_IoalpAKxBhGz@Ep@~Bd@Fs@RDH_AF?RmBfARTBFo@q@OF}@}A[?Pw@QGEJgAyAUQAGrAsBe@Ip@f@NIhBkCc@","category":"no_parking_zone","icon_latitude":"52.53163","icon_longitude":"13.33778","show_icon":false,"zone_styling_id":"1"}},{"id":"Q25UM6VY6PYXB","type":"zones","attributes":{"name":"Berlin - [NPZ] Zentrum für Kunst und Urbanistik","polyline":"kks_IgskpAaFz@u@sKvBgAd@vBl@u@jA|I","category":"no_parking_zone","icon_latitude":"52.53388","icon_longitude":"13.33661","show_icon":false,"zone_styling_id":"1"}},{"id":"NURHD3W2OLH3D","type":"zones","attributes":{"name":"Berlin - [NPZ] Essener Park","polyline":"}zq_IiplpAxEZUoJ_CScAfJ","category":"no_parking_zone","icon_latitude":"52.524885","icon_longitude":"13.3412","show_icon":false,"zone_styling_id":"1"}},{"id":"YDHKAJZRR6KRI","type":"zones","attributes":{"name":"Berlin - [NPZ] Gymnasium Tiergarten/Hansa-Grundschule","polyline":"i}p_I{tlpAe@nDvCdBh@mD{CiB","category":"no_parking_zone","icon_latitude":"52.520395","icon_longitude":"13.34041","show_icon":false,"zone_styling_id":"1"}},{"id":"TC24ZGVPRXZJK","type":"zones","attributes":{"name":"Berlin - [NPZ] Schleswiger Ufer","polyline":"gup_IadlpAvFvI`ErGDaC_LeP]z@","category":"no_parking_zone","icon_latitude":"52.51828","icon_longitude":"13.33701","show_icon":false,"zone_styling_id":"1"}},{"id":"UHM7AVYMHRPST","type":"zones","attributes":{"name":"Berlin - [NPZ] GutsMuths Sportzentrum","polyline":"gip_IwmkpAaLv^jADdAUt@Yf@[j@[j@k@Xc@Xk@Z}@Vo@Vu@LeAJaAHsA@eBIsAGkA[kA]gA","category":"no_parking_zone","icon_latitude":"52.518335","icon_longitude":"13.332285","show_icon":false,"zone_styling_id":"1"}},{"id":"Y3Z26LXI4SJBD","type":"zones","attributes":{"name":"Berlin - [NPZ] Bachstraße","polyline":"sxo_I}vkpAc@c@mEiEs@^nFtFr@i@","category":"no_parking_zone","icon_latitude":"52.515555","icon_longitude":"13.336805","show_icon":false,"zone_styling_id":"1"}},{"id":"QLCINLQWEYXNC","type":"zones","attributes":{"name":"Berlin - [NPZ] Klopstockstraße","polyline":"c~o_I}~kpAhBIs@uDu@~D","category":"no_parking_zone","icon_latitude":"52.515435","icon_longitude":"13.33807","show_icon":false,"zone_styling_id":"1"}},{"id":"MMDDYGQQTTNOU","type":"zones","attributes":{"name":"Berlin - [NPZ] Burger King","polyline":"mro_Iy`lpANjHmDwAVyDdCY","category":"no_parking_zone","icon_latitude":"52.514185","icon_longitude":"13.33714","show_icon":false,"zone_styling_id":"1"}},{"id":"UZEOHVX7GI7WF","type":"zones","attributes":{"name":"Berlin - [NPZ] Tiergartenufer","polyline":"qoo_IitkpAv@zY`AAV}BSiDMkBAyC`@eFoCeA","category":"no_parking_zone","icon_latitude":"52.513005","icon_longitude":"13.33374","show_icon":false,"zone_styling_id":"1"}},{"id":"W37A2YHRCWOV7","type":"zones","attributes":{"name":"Berlin - [NPZ] Schleuse Tiergarten","polyline":"sco_I{vkpAuBs@x@cBh@BZPHj@StA","category":"no_parking_zone","icon_latitude":"52.511705","icon_longitude":"13.33668","show_icon":false,"zone_styling_id":"1"}},{"id":"2WSQFXW2FGRJY","type":"zones","attributes":{"name":"Berlin - [NPZ] Katharina-Heinroth-Ufer","polyline":"spn_IalmpA~EoR`@rA{C|OeB?","category":"no_parking_zone","icon_latitude":"52.507775","icon_longitude":"13.346365","show_icon":false,"zone_styling_id":"1"}},{"id":"GDVZ25I64EEJF","type":"zones","attributes":{"name":"Berlin - [NPZ] Herkulesufer","polyline":"kbn_Iw~npAPxAd@GLu@gCgQu@}@C_N_AfEBtMnAsATMvB|Ne@R","category":"no_parking_zone","icon_latitude":"52.506435","icon_longitude":"13.35544","show_icon":false,"zone_styling_id":"1"}},{"id":"MKQ6HZXIFN2F3","type":"zones","attributes":{"name":"Berlin - [NPZ] Lützowplatz","polyline":"_um_Iy}npAkAtGoD_DW}Ag@sEZI~@f@~E|C","category":"no_parking_zone","icon_latitude":"52.50479","icon_longitude":"13.35257","show_icon":false,"zone_styling_id":"1"}},{"id":"NLTQ45HMC4RTS","type":"zones","attributes":{"name":"Berlin - [NPZ] Magdeburger Platz","polyline":"yum_IoippApCnA~@}JsC_A_AnJ","category":"no_parking_zone","icon_latitude":"52.50361","icon_longitude":"13.360475","show_icon":false,"zone_styling_id":"1"}},{"id":"QSD6T2BGKSLCB","type":"zones","attributes":{"name":"Berlin - NPZ Bridge 1","polyline":"a~t_IgfkpAl@{DdMv_@uBdB_Ka]","category":"no_parking_zone","icon_latitude":"52.540045","icon_longitude":"13.331705","show_icon":false,"zone_styling_id":"1"}},{"id":"TTLTRYW3S2D3P","type":"zones","attributes":{"name":"Berlin - [NPZ] Bibliothek Tiergarten-Süd","polyline":"ctm_I_vppAiF_CXkHfGfAy@bJ","category":"no_parking_zone","icon_latitude":"52.504305","icon_longitude":"13.36283","show_icon":false,"zone_styling_id":"1"}},{"id":"UPXAEGXXV52KZ","type":"zones","attributes":{"name":"Berlin - NPZ Bridge 2","polyline":"_rt_IglmpAl@yExCzD_@lEiDoD","category":"no_parking_zone","icon_latitude":"52.538865","icon_longitude":"13.344945","show_icon":false,"zone_styling_id":"1"}},{"id":"5QUD3TY7CAKSH","type":"zones","attributes":{"name":"Berlin - [NPZ] Park am Karlsbad","polyline":"s`n_IqbrpAl@fBh@XLH~L{ZqB{CcBfBaAnAu@jBu@vBg@zAu@hCi@fC[|B","category":"no_parking_zone","icon_latitude":"52.50449","icon_longitude":"13.37081","show_icon":false,"zone_styling_id":"1"}},{"id":"2ORFERMLUDTZM","type":"zones","attributes":{"name":"Berlin - NPZ Bridge 3","polyline":"mit_IwqppAn@eDdBtEy@fC{AwD","category":"no_parking_zone","icon_latitude":"52.537615","icon_longitude":"13.361035","show_icon":false,"zone_styling_id":"1"}},{"id":"3GPDALYABIJDQ","type":"zones","attributes":{"name":"Berlin - [NPZ] Matthäikirchplatz","polyline":"snn_Ii|qpAU~BwAy@OOKc@Ju@VQdBt@","category":"no_parking_zone","icon_latitude":"52.508445","icon_longitude":"13.367705","show_icon":false,"zone_styling_id":"1"}},{"id":"NMU6FPFC63WYW","type":"zones","attributes":{"name":"Berlin - NPZ Bridge 4","polyline":"a~s_Ia_qpAlA{BuFyNk@fFrEnK","category":"no_parking_zone","icon_latitude":"52.536505","icon_longitude":"13.36478","show_icon":false,"zone_styling_id":"1"}},{"id":"IE2BLVQHFU6AM","type":"zones","attributes":{"name":"Berlin - [NPZ] Linkstraße","polyline":"yqm_I_bspAcCvB{X}MQ{Dp]bP","category":"no_parking_zone","icon_latitude":"52.505935","icon_longitude":"13.374985","show_icon":false,"zone_styling_id":"1"}},{"id":"2GHEV4TI2YED7","type":"zones","attributes":{"name":"Berlin - NPZ Bridge 5","polyline":"akr_I_~rpAlBi@m@gFcBvBb@xC","category":"no_parking_zone","icon_latitude":"52.527825","icon_longitude":"13.373965","show_icon":false,"zone_styling_id":"1"}},{"id":"CUVQN2HB5OKDH","type":"zones","attributes":{"name":"Berlin - [NPZ] Potsdamer Platz Bahnhof","polyline":"ovn_I}rspAzC}A\\dAJnFwDcAMuC","category":"no_parking_zone","icon_latitude":"52.508865","icon_longitude":"13.376325","show_icon":false,"zone_styling_id":"1"}},{"id":"7XSRNNJTENKAI","type":"zones","attributes":{"name":"Berlin - NPZ Bridge 6","polyline":"epq_IasrpAdABDoH}@FMbH","category":"no_parking_zone","icon_latitude":"52.52352","icon_longitude":"13.37227","show_icon":false,"zone_styling_id":"1"}},{"id":"MM7PH64QWTQBI","type":"zones","attributes":{"name":"Berlin - [NPZ] Potsdamer Platz","polyline":"gxn_IarspAwALLdEzACQoE","category":"no_parking_zone","icon_latitude":"52.509815","icon_longitude":"13.37596","show_icon":false,"zone_styling_id":"1"}},{"id":"ND2TPJPRUHTD5","type":"zones","attributes":{"name":"Berlin - NPZ Bridge 7","polyline":"alq_IggrpAnCmCu@oDiClCp@nD","category":"no_parking_zone","icon_latitude":"52.52281","icon_longitude":"13.370435","show_icon":false,"zone_styling_id":"1"}},{"id":"PUTJB57DJL3JG","type":"zones","attributes":{"name":"Berlin - [NPZ] Henriette-Herz-Park","polyline":"e{n_IqispAiGpHt@tJrEgT","category":"no_parking_zone","icon_latitude":"52.510775","icon_longitude":"13.37343","show_icon":false,"zone_styling_id":"1"}},{"id":"HOH2ABV4FEFPL","type":"zones","attributes":{"name":"Berlin - NPZ Bridge 8","polyline":"kdq_I}ispAz@{@iAyEs@v@`A~E","category":"no_parking_zone","icon_latitude":"52.521835","icon_longitude":"13.37588","show_icon":false,"zone_styling_id":"1"}},{"id":"ADYTFJXH7HIGO","type":"zones","attributes":{"name":"Berlin - [NPZ] Leipziger Platz 2","polyline":"mwn_IowspASgLAe@p@KjAlBNvFkArCi@HAi@","category":"no_parking_zone","icon_latitude":"52.509265","icon_longitude":"13.37844","show_icon":false,"zone_styling_id":"1"}},{"id":"PQLZIYOTA4RC7","type":"zones","attributes":{"name":"Berlin - NPZ Bridge 9","polyline":"svp_IygtpAlD]GeBgD\\?dB","category":"no_parking_zone","icon_latitude":"52.51919","icon_longitude":"13.3803","show_icon":false,"zone_styling_id":"1"}}],"zone_stylings":[{"id":"1","type":"zone_stylings","attributes":{"zone_category":"no_parking_no_locking_zone","speed_limit":null,"fill_color":"#4DFF6F55","border_color":"#FFFF6F55","icon_image_url":"https://limebike-web-public-assets.s3-us-west-1.amazonaws.com/icons/zones/icons/no-parking-pin.png","banner_icon_image_url":"https://limebike-web-public-assets.s3-us-west-1.amazonaws.com/icons/zones/banners/no-parking-pin_banner.png","banner_text":"Leave this zone to end or pause your ride.","banner_color":"#dc4d3a","tooltip_title":"No Locking Zone","tooltip_body":"Ending or pausing your ride is not possible here."}}],"bike_clusters":null,"bikes":[{"id":"ET-OUDJFKBPABKYOEKUFOTPSVHCWAMRXTZ2HFZDSJA","type":"bikes","attributes":{"status":"locked","plate_number":"XXX-FCV","latitude":52.500534,"longitude":13.399292,"last_activity_at":"2020-11-24T12:27:19.000Z","type_name":"scooter","battery_level":"medium","meter_range":7452,"rate_plan":"€1 to unlock +\n€0.20 / 1 min","bike_icon_id":49,"last_three":"FCV","license_plate_number":null,"brand":"lime","generation":"3.0"}},{"id":"ET-5J6VRQSPEJVJ57AYSW76L7OWKJ55ABR6QLPHWAY","type":"bikes","attributes":{"status":"locked","plate_number":"XXX-BLG","latitude":52.500686,"longitude":13.399361,"last_activity_at":"2020-11-24T12:34:57.000Z","type_name":"scooter","battery_level":"high","meter_range":18117,"rate_plan":"€1 to unlock +\n€0.20 / 1 min","bike_icon_id":50,"last_three":"BLG","license_plate_number":null,"brand":"lime","generation":"3.4"}},{"id":"ET-TDONAQ264J2LKSPKP6UPKP53A56HEHYOOIMWO7Q","type":"bikes","attributes":{"status":"locked","plate_number":"XXX-YVR","latitude":52.500714,"longitude":13.399267,"last_activity_at":"2020-11-24T12:22:20.000Z","type_name":"scooter","battery_level":"low","meter_range":4462,"rate_plan":"€1 to unlock +\n€0.20 / 1 min","bike_icon_id":48,"last_three":"YVR","license_plate_number":null,"brand":"lime","generation":"3.4"}},{"id":"ET-7C3U4FUNDIEWMXEDIEF7SKT52LSHTWXPZMO4MDI","type":"bikes","attributes":{"status":"locked","plate_number":"XXX-NCB","latitude":52.500865,"longitude":13.399158,"last_activity_at":"2020-11-24T12:16:47.000Z","type_name":"scooter","battery_level":"medium","meter_range":6139,"rate_plan":"€1 to unlock +\n€0.20 / 1 min","bike_icon_id":49,"last_three":"NCB","license_plate_number":null,"brand":"lime","generation":"3.4"}},{"id":"ET-RYB6RW46UCAYZPGKW2GCOY2YFIL3V7NKHFYT54I","type":"bikes","attributes":{"status":"locked","plate_number":"XXX-NPT","latitude":52.502337,"longitude":13.401221,"last_activity_at":"2020-11-24T12:29:12.000Z","type_name":"scooter","battery_level":"high","meter_range":12295,"rate_plan":"€1 to unlock +\n€0.20 / 1 min","bike_icon_id":50,"last_three":"NPT","license_plate_number":null,"brand":"lime","generation":"3.4"}},{"id":"ET-CN2SIHDGQ2VDOF7RF5D3IDX4DJNUHN25JMU3JKQ","type":"bikes","attributes":{"status":"locked","plate_number":"IVN615","latitude":52.502523,"longitude":13.398308,"last_activity_at":"2020-11-24T11:51:15.000Z","type_name":"electric","battery_level":"medium","meter_range":34850,"rate_plan":"€1 to unlock +\n€0.20 / 1 min","bike_icon_id":56,"last_three":"615","license_plate_number":null,"brand":"jump","generation":"v5.6"}},{"id":"ET-JPWL6EWS2P6CE3EGRHKIEK6AUUUCKT7VLQ6BMYI","type":"bikes","attributes":{"status":"locked","plate_number":"CAH464","latitude":52.50245,"longitude":13.397505,"last_activity_at":"2020-11-24T12:26:39.000Z","type_name":"electric","battery_level":"medium","meter_range":35700,"rate_plan":"€1 to unlock +\n€0.20 / 1 min","bike_icon_id":56,"last_three":"464","license_plate_number":null,"brand":"jump","generation":"v5.6"}},{"id":"ET-WDVP447FVPBZFLTO5XVPRKOTKEVWPQ7VJ4V4UJI","type":"bikes","attributes":{"status":"locked","plate_number":"ENP131","latitude":52.502638,"longitude":13.39814,"last_activity_at":"2020-11-24T12:04:02.000Z","type_name":"electric","battery_level":"high","meter_range":48449,"rate_plan":"€1 to unlock +\n€0.20 / 1 min","bike_icon_id":57,"last_three":"131","license_plate_number":null,"brand":"jump","generation":"v5.6"}},{"id":"ET-GPCOUJLM5RZEO5A65BXTQ733SNG6BSUQLN3OL7Q","type":"bikes","attributes":{"status":"locked","plate_number":"XXX-GCE","latitude":52.502747,"longitude":13.398332,"last_activity_at":"2020-11-24T12:23:26.000Z","type_name":"scooter","battery_level":"high","meter_range":23125,"rate_plan":"€1 to unlock +\n€0.20 / 1 min","bike_icon_id":50,"last_three":"GCE","license_plate_number":null,"brand":"lime","generation":"3.4"}},{"id":"ET-XOSFCPGE3XBD5G4HNEZBSK6XSGZDEQDPPEKFPNQ","type":"bikes","attributes":{"status":"locked","plate_number":"XXX-LYH","latitude":52.502603,"longitude":13.397478,"last_activity_at":"2020-11-24T12:13:28.000Z","type_name":"scooter","battery_level":"medium","meter_range":9752,"rate_plan":"€1 to unlock +\n€0.20 / 1 min","bike_icon_id":49,"last_three":"LYH","license_plate_number":null,"brand":"lime","generation":"3.4"}},{"id":"ET-RD6G2X5CHJQT7SY36HD55GQPM7BGCXYELGIQAPI","type":"bikes","attributes":{"status":"locked","plate_number":"XXX-HTF","latitude":52.502592,"longitude":13.402194,"last_activity_at":"2020-11-24T12:38:38.000Z","type_name":"scooter","battery_level":"medium","meter_range":6916,"rate_plan":"€1 to unlock +\n€0.20 / 1 min","bike_icon_id":49,"last_three":"HTF","license_plate_number":null,"brand":"lime","generation":"3.4"}},{"id":"ET-SG66YLT2GV4LKISEW3SLZLEBHACTSIXW2TCUKUY","type":"bikes","attributes":{"status":"locked","plate_number":"XXX-ZPE","latitude":52.502697,"longitude":13.397586,"last_activity_at":"2020-11-24T12:25:23.000Z","type_name":"scooter","battery_level":"high","meter_range":25374,"rate_plan":"€1 to unlock +\n€0.20 / 1 min","bike_icon_id":50,"last_three":"ZPE","license_plate_number":null,"brand":"lime","generation":"3.4"}},{"id":"ET-GJXDO6LEHWIORYPJT6J5S2G3UZZNVK2RWDAHADI","type":"bikes","attributes":{"status":"locked","plate_number":"XXX-WYY","latitude":52.502663,"longitude":13.397461,"last_activity_at":"2020-11-24T11:57:59.000Z","type_name":"scooter","battery_level":"medium","meter_range":10677,"rate_plan":"€1 to unlock +\n€0.20 / 1 min","bike_icon_id":49,"last_three":"WYY","license_plate_number":null,"brand":"lime","generation":"3.4"}},{"id":"ET-VTDEOQYDKULG62URZ3AEBDCIGPBTERX2A7XN4TY","type":"bikes","attributes":{"status":"locked","plate_number":"XXX-CHE","latitude":52.501155,"longitude":13.404633,"last_activity_at":"2020-11-24T12:22:41.000Z","type_name":"scooter","battery_level":"medium","meter_range":6653,"rate_plan":"€1 to unlock +\n€0.20 / 1 min","bike_icon_id":49,"last_three":"CHE","license_plate_number":null,"brand":"lime","generation":"3.0"}},{"id":"ET-EIXO4X5C7ITIHLRGVIB77AYO6ZQZUBXUZTKCTFY","type":"bikes","attributes":{"status":"locked","plate_number":"XXX-LFT","latitude":52.498507,"longitude":13.40496,"last_activity_at":"2020-11-24T12:37:03.000Z","type_name":"scooter","battery_level":"high","meter_range":27242,"rate_plan":"€1 to unlock +\n€0.20 / 1 min","bike_icon_id":50,"last_three":"LFT","license_plate_number":null,"brand":"lime","generation":"3.4"}},{"id":"ET-CBWCJJXNIWYWCMSCJ762L4JFHMCALNBGMNAENBQ","type":"bikes","attributes":{"status":"locked","plate_number":"KUJ688","latitude":52.50349,"longitude":13.398395,"last_activity_at":"2020-11-24T12:32:13.000Z","type_name":"electric","battery_level":"high","meter_range":72250,"rate_plan":"€1 to unlock +\n€0.20 / 1 min","bike_icon_id":57,"last_three":"688","license_plate_number":null,"brand":"jump","generation":"v5.6"}},{"id":"ET-V4G7YXY6T7C7UVC4XNMKI3PXCEKTPYYYMZSE3JY","type":"bikes","attributes":{"status":"locked","plate_number":"XXX-AYF","latitude":52.50391,"longitude":13.401721,"last_activity_at":"2020-11-24T11:55:54.000Z","type_name":"scooter","battery_level":"medium","meter_range":10677,"rate_plan":"€1 to unlock +\n€0.20 / 1 min","bike_icon_id":49,"last_three":"AYF","license_plate_number":null,"brand":"lime","generation":"3.4"}},{"id":"ET-SUGUBKZ7BC5JDJW2MRNGFOADHJ633GT5AFK7KNI","type":"bikes","attributes":{"status":"locked","plate_number":"XXX-YXG","latitude":52.503214,"longitude":13.395419,"last_activity_at":"2020-11-24T12:26:17.000Z","type_name":"scooter","battery_level":"high","meter_range":13659,"rate_plan":"€1 to unlock +\n€0.20 / 1 min","bike_icon_id":50,"last_three":"YXG","license_plate_number":null,"brand":"lime","generation":"3"}},{"id":"ET-SCZTVR3AVKCOXB76CSX2Y3QNO3F7CDNM4OASKEY","type":"bikes","attributes":{"status":"locked","plate_number":"RGZ495","latitude":52.496088,"longitude":13.402043,"last_activity_at":"2020-11-24T12:30:03.000Z","type_name":"electric","battery_level":"high","meter_range":57800,"rate_plan":"€1 to unlock +\n€0.20 / 1 min","bike_icon_id":57,"last_three":"495","license_plate_number":null,"brand":"jump","generation":"v5.6"}},{"id":"ET-AHAQUGZE6GJAX4ALCHQ6DOLUPP23ZER56U7IPJY","type":"bikes","attributes":{"status":"locked","plate_number":"FTP949","latitude":52.49593,"longitude":13.401738,"last_activity_at":"2020-11-24T12:19:39.000Z","type_name":"electric","battery_level":"high","meter_range":52700,"rate_plan":"€1 to unlock +\n€0.20 / 1 min","bike_icon_id":57,"last_three":"949","license_plate_number":null,"brand":"jump","generation":"v5.6"}},{"id":"ET-HAY2CUEAOYKN56EGZ4S5DECD24MCG3L3P46LOXI","type":"bikes","attributes":{"status":"locked","plate_number":"XXX-BMS","latitude":52.499098,"longitude":13.406671,"last_activity_at":"2020-11-24T11:43:27.000Z","type_name":"scooter","battery_level":"medium","meter_range":8861,"rate_plan":"€1 to unlock +\n€0.20 / 1 min","bike_icon_id":49,"last_three":"BMS","license_plate_number":null,"brand":"lime","generation":"3.4"}},{"id":"ET-WYOOI3W3D7Q3N733VL3JIZAQPJ4J5MJTMAESGYA","type":"bikes","attributes":{"status":"locked","plate_number":"XXX-AUB","latitude":52.498621,"longitude":13.406461,"last_activity_at":"2020-11-24T12:28:31.000Z","type_name":"scooter","battery_level":"low","meter_range":3800,"rate_plan":"€1 to unlock +\n€0.20 / 1 min","bike_icon_id":48,"last_three":"AUB","license_plate_number":null,"brand":"lime","generation":"3.4"}},{"id":"ET-JKPG2W55KXS4ARPPXX3JDZSTAUZ4TMDHOLYGOAA","type":"bikes","attributes":{"status":"locked","plate_number":"XXX-WUS","latitude":52.498625,"longitude":13.406548,"last_activity_at":"2020-11-24T12:32:31.000Z","type_name":"scooter","battery_level":"medium","meter_range":6394,"rate_plan":"€1 to unlock +\n€0.20 / 1 min","bike_icon_id":49,"last_three":"WUS","license_plate_number":null,"brand":"lime","generation":"3.4"}},{"id":"ET-DQXYAQDUBGBVJZUXTKIBHM7AKJMDVK5L5EM6Z6I","type":"bikes","attributes":{"status":"locked","plate_number":"XXX-NFB","latitude":52.498746,"longitude":13.406623,"last_activity_at":"2020-11-24T12:15:52.000Z","type_name":"scooter","battery_level":"medium","meter_range":10365,"rate_plan":"€1 to unlock +\n€0.20 / 1 min","bike_icon_id":49,"last_three":"NFB","license_plate_number":null,"brand":"lime","generation":"3.4"}},{"id":"ET-ZD53V76GR4JVYOWZ6C7VLYJ4WFPEFBVKL5FMYVY","type":"bikes","attributes":{"status":"locked","plate_number":"XXX-FED","latitude":52.500874,"longitude":13.392629,"last_activity_at":"2020-11-24T12:14:48.000Z","type_name":"scooter","battery_level":"medium","meter_range":8861,"rate_plan":"€1 to unlock +\n€0.20 / 1 min","bike_icon_id":49,"last_three":"FED","license_plate_number":null,"brand":"lime","generation":"3.4"}},{"id":"ET-3O6M77AZJIX4MINELQMTKKAWTGG2BXDJKMEAVFA","type":"bikes","attributes":{"status":"locked","plate_number":"XXX-MJM","latitude":52.498041,"longitude":13.406276,"last_activity_at":"2020-11-24T12:44:15.000Z","type_name":"scooter","battery_level":"medium","meter_range":10365,"rate_plan":"€1 to unlock +\n€0.20 / 1 min","bike_icon_id":49,"last_three":"MJM","license_plate_number":null,"brand":"lime","generation":"3.4"}},{"id":"ET-IAHHKE2HWZILVD2YLH7AGI7HOEA2XOCWIVCAYWY","type":"bikes","attributes":{"status":"locked","plate_number":"XXX-CDR","latitude":52.49814,"longitude":13.406359,"last_activity_at":"2020-11-24T12:34:08.000Z","type_name":"scooter","battery_level":"high","meter_range":16193,"rate_plan":"€1 to unlock +\n€0.20 / 1 min","bike_icon_id":50,"last_three":"CDR","license_plate_number":null,"brand":"lime","generation":"3.4"}},{"id":"ET-2APA2ZFRG47X3I33WP7Y3H6DB4CKYA3ICKQTVRY","type":"bikes","attributes":{"status":"locked","plate_number":"XXX-EZT","latitude":52.498172,"longitude":13.406498,"last_activity_at":"2020-11-24T11:52:25.000Z","type_name":"scooter","battery_level":"medium","meter_range":5641,"rate_plan":"€1 to unlock +\n€0.20 / 1 min","bike_icon_id":49,"last_three":"EZT","license_plate_number":null,"brand":"lime","generation":"3.4"}},{"id":"ET-S6RAPH3QVOLVDGNLPBLIJ64UTWL2MM6HRHC5PNY","type":"bikes","attributes":{"status":"locked","plate_number":"FYW088","latitude":52.495643,"longitude":13.3981,"last_activity_at":"2020-11-24T12:06:43.000Z","type_name":"electric","battery_level":"high","meter_range":66300,"rate_plan":"€1 to unlock +\n€0.20 / 1 min","bike_icon_id":57,"last_three":"088","license_plate_number":null,"brand":"jump","generation":"v5.6"}},{"id":"ET-KZOK2UFD6BJSDGA53F73H53HYQBRN7SISGGNEYA","type":"bikes","attributes":{"status":"locked","plate_number":"XXX-YXM","latitude":52.504103,"longitude":13.403319,"last_activity_at":"2020-11-24T11:51:21.000Z","type_name":"scooter","battery_level":"medium","meter_range":5641,"rate_plan":"€1 to unlock +\n€0.20 / 1 min","bike_icon_id":49,"last_three":"YXM","license_plate_number":null,"brand":"lime","generation":"3.4"}},{"id":"ET-OSHON4QJ43JCVGAPXXFPYWV2DQKAUI2DXIR5ULQ","type":"bikes","attributes":{"status":"locked","plate_number":"XXX-GKL","latitude":52.495532,"longitude":13.401727,"last_activity_at":"2020-11-24T11:47:49.000Z","type_name":"scooter","battery_level":"high","meter_range":15084,"rate_plan":"€1 to unlock +\n€0.20 / 1 min","bike_icon_id":50,"last_three":"GKL","license_plate_number":null,"brand":"lime","generation":"3.0"}},{"id":"ET-5437KEV7QPNTGSPMR4A253GNEHT7WAADHALXXDA","type":"bikes","attributes":{"status":"locked","plate_number":"XXX-DZU","latitude":52.497384,"longitude":13.393294,"last_activity_at":"2020-11-24T11:57:16.000Z","type_name":"scooter","battery_level":"medium","meter_range":8571,"rate_plan":"€1 to unlock +\n€0.20 / 1 min","bike_icon_id":49,"last_three":"DZU","license_plate_number":null,"brand":"lime","generation":"3"}},{"id":"ET-ZJ3ACGP7UXVY3Y5KMW3ZEHKY5ADYSORJ3BLRSUI","type":"bikes","attributes":{"status":"locked","plate_number":"XXX-JCP","latitude":52.495506,"longitude":13.397343,"last_activity_at":"2020-11-24T12:23:54.000Z","type_name":"scooter","battery_level":"high","meter_range":14364,"rate_plan":"€1 to unlock +\n€0.20 / 1 min","bike_icon_id":50,"last_three":"JCP","license_plate_number":null,"brand":"lime","generation":"3.4"}},{"id":"ET-46M4UY2MILKLC57H2QCIVV3EYBXU257DLUYFEXY","type":"bikes","attributes":{"status":"locked","plate_number":"XXX-JXG","latitude":52.49548,"longitude":13.397154,"last_activity_at":"2020-11-24T11:54:26.000Z","type_name":"scooter","battery_level":"high","meter_range":32180,"rate_plan":"€1 to unlock +\n€0.20 / 1 min","bike_icon_id":50,"last_three":"JXG","license_plate_number":null,"brand":"lime","generation":"3.4"}},{"id":"ET-QBR7ES2QCNUT2TR3Q5GTO7I2AUGTZPS4O4HFERI","type":"bikes","attributes":{"status":"locked","plate_number":"PJF026","latitude":52.495435,"longitude":13.402362,"last_activity_at":"2020-11-24T12:19:19.000Z","type_name":"electric","battery_level":"medium","meter_range":35700,"rate_plan":"€1 to unlock +\n€0.20 / 1 min","bike_icon_id":56,"last_three":"026","license_plate_number":null,"brand":"jump","generation":"v5.6"}},{"id":"ET-HEIV6AYJN2A44KJRXJBF5AXO6EXWT25HBXSEJRI","type":"bikes","attributes":{"status":"locked","plate_number":"NUR186","latitude":52.50021,"longitude":13.391772,"last_activity_at":"2020-11-24T12:22:19.000Z","type_name":"electric","battery_level":"high","meter_range":56100,"rate_plan":"€1 to unlock +\n€0.20 / 1 min","bike_icon_id":57,"last_three":"186","license_plate_number":null,"brand":"jump","generation":"v5.6"}},{"id":"ET-7RCWU7GAPEQHNDMOWERRFGFTGTKLX2VZ6IMKYUA","type":"bikes","attributes":{"status":"locked","plate_number":"FAF559","latitude":52.498642,"longitude":13.407502,"last_activity_at":"2020-11-24T12:30:59.000Z","type_name":"electric","battery_level":"low","meter_range":21250,"rate_plan":"€1 to unlock +\n€0.20 / 1 min","bike_icon_id":55,"last_three":"559","license_plate_number":null,"brand":"jump","generation":"v5.6"}},{"id":"ET-5LAT7KK2ADGQZCESRSPCDD44EVIDSJ23AFFQ7RI","type":"bikes","attributes":{"status":"locked","plate_number":"XXX-VBY","latitude":52.500156,"longitude":13.407903,"last_activity_at":"2020-11-24T12:34:37.000Z","type_name":"scooter","battery_level":"high","meter_range":11313,"rate_plan":"€1 to unlock +\n€0.20 / 1 min","bike_icon_id":50,"last_three":"VBY","license_plate_number":null,"brand":"lime","generation":"3.4"}},{"id":"ET-LK2BYN66VPFB3JDGGIX46NLZC2SWRRHOXMOI5AA","type":"bikes","attributes":{"status":"locked","plate_number":"VSS646","latitude":52.500048,"longitude":13.407922,"last_activity_at":"2020-11-24T12:28:46.000Z","type_name":"electric","battery_level":"low","meter_range":22100,"rate_plan":"€1 to unlock +\n€0.20 / 1 min","bike_icon_id":55,"last_three":"646","license_plate_number":null,"brand":"jump","generation":"v5.6"}},{"id":"ET-VTLF5DDS76TUT6WE2PNLMSC64BP2K2JD4OUHFSY","type":"bikes","attributes":{"status":"locked","plate_number":"BGP651","latitude":52.504937,"longitude":13.398248,"last_activity_at":"2020-11-24T12:17:06.000Z","type_name":"electric","battery_level":"high","meter_range":73950,"rate_plan":"€1 to unlock +\n€0.20 / 1 min","bike_icon_id":57,"last_three":"651","license_plate_number":null,"brand":"jump","generation":"v5.6"}},{"id":"ET-WQJEPWZ6C7KTWHCPFSNS4TDQHCP3QMR3XMZADFA","type":"bikes","attributes":{"status":"locked","plate_number":"XXX-GQK","latitude":52.504462,"longitude":13.403569,"last_activity_at":"2020-11-24T12:43:57.000Z","type_name":"scooter","battery_level":"medium","meter_range":7726,"rate_plan":"€1 to unlock +\n€0.20 / 1 min","bike_icon_id":49,"last_three":"GQK","license_plate_number":null,"brand":"lime","generation":"3.0"}},{"id":"ET-ZWLODOOX7PVZMHXXEQ57XOFLL2TIJXXXD23XQII","type":"bikes","attributes":{"status":"locked","plate_number":"XXX-TJK","latitude":52.495091,"longitude":13.398226,"last_activity_at":"2020-11-24T12:13:48.000Z","type_name":"scooter","battery_level":"high","meter_range":28683,"rate_plan":"€1 to unlock +\n€0.20 / 1 min","bike_icon_id":50,"last_three":"TJK","license_plate_number":null,"brand":"lime","generation":"3.4"}},{"id":"ET-7JEZRDRXR67JM6JSAWQCQMYTX5ORYOPJYX46WLA","type":"bikes","attributes":{"status":"locked","plate_number":"XXX-EDZ","latitude":52.500509,"longitude":13.40817,"last_activity_at":"2020-11-24T12:30:40.000Z","type_name":"scooter","battery_level":"medium","meter_range":8286,"rate_plan":"€1 to unlock +\n€0.20 / 1 min","bike_icon_id":49,"last_three":"EDZ","license_plate_number":null,"brand":"lime","generation":"3.4"}},{"id":"ET-VTPVT4AMWQQ2YANZDO2K6AGTT6OQVAT2AYXGEJI","type":"bikes","attributes":{"status":"locked","plate_number":"XXX-KDB","latitude":52.503372,"longitude":13.39331,"last_activity_at":"2020-11-24T12:39:33.000Z","type_name":"scooter","battery_level":"medium","meter_range":8861,"rate_plan":"€1 to unlock +\n€0.20 / 1 min","bike_icon_id":49,"last_three":"KDB","license_plate_number":null,"brand":"lime","generation":"3.0"}},{"id":"ET-SEBOGNALLY6LKZYPWVXEFJFXITVXLJM33X2LCYA","type":"bikes","attributes":{"status":"locked","plate_number":"XXX-GVR","latitude":52.495726,"longitude":13.395088,"last_activity_at":"2020-11-24T12:01:42.000Z","type_name":"scooter","battery_level":"high","meter_range":32180,"rate_plan":"€1 to unlock +\n€0.20 / 1 min","bike_icon_id":50,"last_three":"GVR","license_plate_number":null,"brand":"lime","generation":"3.4"}},{"id":"ET-UAVJOINCUHTG4UN4742ZQ3XUCZWR5536YHS5WPY","type":"bikes","attributes":{"status":"locked","plate_number":"XXX-EFC","latitude":52.505148,"longitude":13.39836,"last_activity_at":"2020-11-24T12:20:56.000Z","type_name":"scooter","battery_level":"medium","meter_range":6653,"rate_plan":"€1 to unlock +\n€0.20 / 1 min","bike_icon_id":49,"last_three":"EFC","license_plate_number":null,"brand":"lime","generation":"3.4"}},{"id":"ET-AZV5V7FOUDQ4O7TN6J4UYZMFVK3PZI3OMHNKW6Q","type":"bikes","attributes":{"status":"locked","plate_number":"XXX-GAT","latitude":52.498923,"longitude":13.391456,"last_activity_at":"2020-11-24T12:44:31.000Z","type_name":"scooter","battery_level":"high","meter_range":31162,"rate_plan":"€1 to unlock +\n€0.20 / 1 min","bike_icon_id":50,"last_three":"GAT","license_plate_number":null,"brand":"lime","generation":"3.4"}},{"id":"ET-ZN4WJTDNZCUU3Y2ZNS2MXBU45BC4RUPJOEJIJFY","type":"bikes","attributes":{"status":"locked","plate_number":"XXX-PVN","latitude":52.498099,"longitude":13.391806,"last_activity_at":"2020-11-24T12:07:11.000Z","type_name":"scooter","battery_level":"medium","meter_range":7182,"rate_plan":"€1 to unlock +\n€0.20 / 1 min","bike_icon_id":49,"last_three":"PVN","license_plate_number":null,"brand":"lime","generation":"3.4"}},{"id":"ET-PUFWPJGAKBA6F3347SBRF6FIWMVQFK3QSIU6JVI","type":"bikes","attributes":{"status":"locked","plate_number":"XXX-MEG","latitude":52.498054,"longitude":13.391824,"last_activity_at":"2020-11-24T12:43:53.000Z","type_name":"scooter","battery_level":"low","meter_range":3378,"rate_plan":"€1 to unlock +\n€0.20 / 1 min","bike_icon_id":48,"last_three":"MEG","license_plate_number":null,"brand":"lime","generation":"3.4"}},{"id":"ET-5MR2F3IP7I7ZDPYY533FU2ESDGKBMZIRANJCXGI","type":"bikes","attributes":{"status":"locked","plate_number":"XXX-NRN","latitude":52.498943,"longitude":13.408205,"last_activity_at":"2020-11-24T12:26:58.000Z","type_name":"scooter","battery_level":"low","meter_range":4017,"rate_plan":"€1 to unlock +\n€0.20 / 1 min","bike_icon_id":48,"last_three":"NRN","license_plate_number":null,"brand":"lime","generation":"3"}}],"selected_bike":null,"bike_pins":[{"id":"ET-OUDJFKBPABKYOEKUFOTPSVHCWAMRXTZ2HFZDSJA","type":"bike","pin":{"selected_icon_id":347,"unselected_icon_id":348},"location":{"latitude":52.500534,"longitude":13.399292}},{"id":"ET-5J6VRQSPEJVJ57AYSW76L7OWKJ55ABR6QLPHWAY","type":"bike","pin":{"selected_icon_id":353,"unselected_icon_id":354},"location":{"latitude":52.500686,"longitude":13.399361}},{"id":"ET-TDONAQ264J2LKSPKP6UPKP53A56HEHYOOIMWO7Q","type":"bike","pin":{"selected_icon_id":345,"unselected_icon_id":346},"location":{"latitude":52.500714,"longitude":13.399267}},{"id":"ET-7C3U4FUNDIEWMXEDIEF7SKT52LSHTWXPZMO4MDI","type":"bike","pin":{"selected_icon_id":345,"unselected_icon_id":346},"location":{"latitude":52.500865,"longitude":13.399158}},{"id":"ET-RYB6RW46UCAYZPGKW2GCOY2YFIL3V7NKHFYT54I","type":"bike","pin":{"selected_icon_id":349,"unselected_icon_id":350},"location":{"latitude":52.502337,"longitude":13.401221}},{"id":"ET-CN2SIHDGQ2VDOF7RF5D3IDX4DJNUHN25JMU3JKQ","type":"bike","pin":{"selected_icon_id":369,"unselected_icon_id":370},"location":{"latitude":52.502523,"longitude":13.398308}},{"id":"ET-JPWL6EWS2P6CE3EGRHKIEK6AUUUCKT7VLQ6BMYI","type":"bike","pin":{"selected_icon_id":369,"unselected_icon_id":370},"location":{"latitude":52.50245,"longitude":13.397505}},{"id":"ET-WDVP447FVPBZFLTO5XVPRKOTKEVWPQ7VJ4V4UJI","type":"bike","pin":{"selected_icon_id":373,"unselected_icon_id":374},"location":{"latitude":52.502638,"longitude":13.39814}},{"id":"ET-GPCOUJLM5RZEO5A65BXTQ733SNG6BSUQLN3OL7Q","type":"bike","pin":{"selected_icon_id":355,"unselected_icon_id":356},"location":{"latitude":52.502747,"longitude":13.398332}},{"id":"ET-XOSFCPGE3XBD5G4HNEZBSK6XSGZDEQDPPEKFPNQ","type":"bike","pin":{"selected_icon_id":349,"unselected_icon_id":350},"location":{"latitude":52.502603,"longitude":13.397478}},{"id":"ET-RD6G2X5CHJQT7SY36HD55GQPM7BGCXYELGIQAPI","type":"bike","pin":{"selected_icon_id":347,"unselected_icon_id":348},"location":{"latitude":52.502592,"longitude":13.402194}},{"id":"ET-SG66YLT2GV4LKISEW3SLZLEBHACTSIXW2TCUKUY","type":"bike","pin":{"selected_icon_id":357,"unselected_icon_id":358},"location":{"latitude":52.502697,"longitude":13.397586}},{"id":"ET-GJXDO6LEHWIORYPJT6J5S2G3UZZNVK2RWDAHADI","type":"bike","pin":{"selected_icon_id":349,"unselected_icon_id":350},"location":{"latitude":52.502663,"longitude":13.397461}},{"id":"ET-VTDEOQYDKULG62URZ3AEBDCIGPBTERX2A7XN4TY","type":"bike","pin":{"selected_icon_id":345,"unselected_icon_id":346},"location":{"latitude":52.501155,"longitude":13.404633}},{"id":"ET-EIXO4X5C7ITIHLRGVIB77AYO6ZQZUBXUZTKCTFY","type":"bike","pin":{"selected_icon_id":357,"unselected_icon_id":358},"location":{"latitude":52.498507,"longitude":13.40496}},{"id":"ET-CBWCJJXNIWYWCMSCJ762L4JFHMCALNBGMNAENBQ","type":"bike","pin":{"selected_icon_id":379,"unselected_icon_id":380},"location":{"latitude":52.50349,"longitude":13.398395}},{"id":"ET-V4G7YXY6T7C7UVC4XNMKI3PXCEKTPYYYMZSE3JY","type":"bike","pin":{"selected_icon_id":349,"unselected_icon_id":350},"location":{"latitude":52.50391,"longitude":13.401721}},{"id":"ET-SUGUBKZ7BC5JDJW2MRNGFOADHJ633GT5AFK7KNI","type":"bike","pin":{"selected_icon_id":351,"unselected_icon_id":352},"location":{"latitude":52.503214,"longitude":13.395419}},{"id":"ET-SCZTVR3AVKCOXB76CSX2Y3QNO3F7CDNM4OASKEY","type":"bike","pin":{"selected_icon_id":375,"unselected_icon_id":376},"location":{"latitude":52.496088,"longitude":13.402043}},{"id":"ET-AHAQUGZE6GJAX4ALCHQ6DOLUPP23ZER56U7IPJY","type":"bike","pin":{"selected_icon_id":373,"unselected_icon_id":374},"location":{"latitude":52.49593,"longitude":13.401738}},{"id":"ET-HAY2CUEAOYKN56EGZ4S5DECD24MCG3L3P46LOXI","type":"bike","pin":{"selected_icon_id":347,"unselected_icon_id":348},"location":{"latitude":52.499098,"longitude":13.406671}},{"id":"ET-WYOOI3W3D7Q3N733VL3JIZAQPJ4J5MJTMAESGYA","type":"bike","pin":{"selected_icon_id":343,"unselected_icon_id":344},"location":{"latitude":52.498621,"longitude":13.406461}},{"id":"ET-JKPG2W55KXS4ARPPXX3JDZSTAUZ4TMDHOLYGOAA","type":"bike","pin":{"selected_icon_id":345,"unselected_icon_id":346},"location":{"latitude":52.498625,"longitude":13.406548}},{"id":"ET-DQXYAQDUBGBVJZUXTKIBHM7AKJMDVK5L5EM6Z6I","type":"bike","pin":{"selected_icon_id":349,"unselected_icon_id":350},"location":{"latitude":52.498746,"longitude":13.406623}},{"id":"ET-ZD53V76GR4JVYOWZ6C7VLYJ4WFPEFBVKL5FMYVY","type":"bike","pin":{"selected_icon_id":347,"unselected_icon_id":348},"location":{"latitude":52.500874,"longitude":13.392629}},{"id":"ET-3O6M77AZJIX4MINELQMTKKAWTGG2BXDJKMEAVFA","type":"bike","pin":{"selected_icon_id":349,"unselected_icon_id":350},"location":{"latitude":52.498041,"longitude":13.406276}},{"id":"ET-IAHHKE2HWZILVD2YLH7AGI7HOEA2XOCWIVCAYWY","type":"bike","pin":{"selected_icon_id":351,"unselected_icon_id":352},"location":{"latitude":52.49814,"longitude":13.406359}},{"id":"ET-2APA2ZFRG47X3I33WP7Y3H6DB4CKYA3ICKQTVRY","type":"bike","pin":{"selected_icon_id":345,"unselected_icon_id":346},"location":{"latitude":52.498172,"longitude":13.406498}},{"id":"ET-S6RAPH3QVOLVDGNLPBLIJ64UTWL2MM6HRHC5PNY","type":"bike","pin":{"selected_icon_id":377,"unselected_icon_id":378},"location":{"latitude":52.495643,"longitude":13.3981}},{"id":"ET-KZOK2UFD6BJSDGA53F73H53HYQBRN7SISGGNEYA","type":"bike","pin":{"selected_icon_id":345,"unselected_icon_id":346},"location":{"latitude":52.504103,"longitude":13.403319}},{"id":"ET-OSHON4QJ43JCVGAPXXFPYWV2DQKAUI2DXIR5ULQ","type":"bike","pin":{"selected_icon_id":351,"unselected_icon_id":352},"location":{"latitude":52.495532,"longitude":13.401727}},{"id":"ET-5437KEV7QPNTGSPMR4A253GNEHT7WAADHALXXDA","type":"bike","pin":{"selected_icon_id":347,"unselected_icon_id":348},"location":{"latitude":52.497384,"longitude":13.393294}},{"id":"ET-ZJ3ACGP7UXVY3Y5KMW3ZEHKY5ADYSORJ3BLRSUI","type":"bike","pin":{"selected_icon_id":351,"unselected_icon_id":352},"location":{"latitude":52.495506,"longitude":13.397343}},{"id":"ET-46M4UY2MILKLC57H2QCIVV3EYBXU257DLUYFEXY","type":"bike","pin":{"selected_icon_id":359,"unselected_icon_id":360},"location":{"latitude":52.49548,"longitude":13.397154}},{"id":"ET-QBR7ES2QCNUT2TR3Q5GTO7I2AUGTZPS4O4HFERI","type":"bike","pin":{"selected_icon_id":369,"unselected_icon_id":370},"location":{"latitude":52.495435,"longitude":13.402362}},{"id":"ET-HEIV6AYJN2A44KJRXJBF5AXO6EXWT25HBXSEJRI","type":"bike","pin":{"selected_icon_id":375,"unselected_icon_id":376},"location":{"latitude":52.50021,"longitude":13.391772}},{"id":"ET-7RCWU7GAPEQHNDMOWERRFGFTGTKLX2VZ6IMKYUA","type":"bike","pin":{"selected_icon_id":367,"unselected_icon_id":368},"location":{"latitude":52.498642,"longitude":13.407502}},{"id":"ET-5LAT7KK2ADGQZCESRSPCDD44EVIDSJ23AFFQ7RI","type":"bike","pin":{"selected_icon_id":349,"unselected_icon_id":350},"location":{"latitude":52.500156,"longitude":13.407903}},{"id":"ET-LK2BYN66VPFB3JDGGIX46NLZC2SWRRHOXMOI5AA","type":"bike","pin":{"selected_icon_id":367,"unselected_icon_id":368},"location":{"latitude":52.500048,"longitude":13.407922}},{"id":"ET-VTLF5DDS76TUT6WE2PNLMSC64BP2K2JD4OUHFSY","type":"bike","pin":{"selected_icon_id":379,"unselected_icon_id":380},"location":{"latitude":52.504937,"longitude":13.398248}},{"id":"ET-WQJEPWZ6C7KTWHCPFSNS4TDQHCP3QMR3XMZADFA","type":"bike","pin":{"selected_icon_id":347,"unselected_icon_id":348},"location":{"latitude":52.504462,"longitude":13.403569}},{"id":"ET-ZWLODOOX7PVZMHXXEQ57XOFLL2TIJXXXD23XQII","type":"bike","pin":{"selected_icon_id":357,"unselected_icon_id":358},"location":{"latitude":52.495091,"longitude":13.398226}},{"id":"ET-7JEZRDRXR67JM6JSAWQCQMYTX5ORYOPJYX46WLA","type":"bike","pin":{"selected_icon_id":347,"unselected_icon_id":348},"location":{"latitude":52.500509,"longitude":13.40817}},{"id":"ET-VTPVT4AMWQQ2YANZDO2K6AGTT6OQVAT2AYXGEJI","type":"bike","pin":{"selected_icon_id":347,"unselected_icon_id":348},"location":{"latitude":52.503372,"longitude":13.39331}},{"id":"ET-SEBOGNALLY6LKZYPWVXEFJFXITVXLJM33X2LCYA","type":"bike","pin":{"selected_icon_id":359,"unselected_icon_id":360},"location":{"latitude":52.495726,"longitude":13.395088}},{"id":"ET-UAVJOINCUHTG4UN4742ZQ3XUCZWR5536YHS5WPY","type":"bike","pin":{"selected_icon_id":345,"unselected_icon_id":346},"location":{"latitude":52.505148,"longitude":13.39836}},{"id":"ET-AZV5V7FOUDQ4O7TN6J4UYZMFVK3PZI3OMHNKW6Q","type":"bike","pin":{"selected_icon_id":359,"unselected_icon_id":360},"location":{"latitude":52.498923,"longitude":13.391456}},{"id":"ET-ZN4WJTDNZCUU3Y2ZNS2MXBU45BC4RUPJOEJIJFY","type":"bike","pin":{"selected_icon_id":347,"unselected_icon_id":348},"location":{"latitude":52.498099,"longitude":13.391806}},{"id":"ET-PUFWPJGAKBA6F3347SBRF6FIWMVQFK3QSIU6JVI","type":"bike","pin":{"selected_icon_id":343,"unselected_icon_id":344},"location":{"latitude":52.498054,"longitude":13.391824}},{"id":"ET-5MR2F3IP7I7ZDPYY533FU2ESDGKBMZIRANJCXGI","type":"bike","pin":{"selected_icon_id":343,"unselected_icon_id":344},"location":{"latitude":52.498943,"longitude":13.408205}}],"selected_bike_pin":null,"parking_spots":null,"icons":[{"id":"1","type":"icons","attributes":{"url":"https://d22d5yy1i19g9i.cloudfront.net/icons/default_pin.png?fingerprint=92bcf96642bd8a61eb4f4cca70794496","description_icon_url":null,"description_link_url":null,"description":""}},{"id":"2","type":"icons","attributes":{"url":"https://d22d5yy1i19g9i.cloudfront.net/icons/default_cluster.png?fingerprint=ee1ba7d312070752ad24fd4ef1eb4cc3","description_icon_url":null,"description_link_url":null,"description":""}},{"id":"3","type":"icons","attributes":{"url":"https://d22d5yy1i19g9i.cloudfront.net/icons/billy_pin.png?fingerprint=c8d8e603a165a9e0ab8cade67302d641","description_icon_url":null,"description_link_url":null,"description":""}},{"id":"4","type":"icons","attributes":{"url":"https://d22d5yy1i19g9i.cloudfront.net/icons/bag_pin.png?fingerprint=979b39cf4be0297bc333ac392385496b","description_icon_url":"https://d22d5yy1i19g9i.cloudfront.net/icons/descriptions/header_bag.png?fingerprint=6fa66737de2752c3b6099a17f0ad7a37","description_link_url":null,"description":"If you ride a bonus bike for five minutes or more, you get a %{amount} off coupon!"}},{"id":"5","type":"icons","attributes":{"url":"https://d22d5yy1i19g9i.cloudfront.net/icons/electric_pin.png?fingerprint=03879bb627b8bac33b6310df8f16af0c","description_icon_url":null,"description_link_url":null,"description":"Lime-E bikes are equipped with powerful motors and rechargeable batteries, ready to go further and faster."}},{"id":"6","type":"icons","attributes":{"url":"https://d22d5yy1i19g9i.cloudfront.net/icons/scooter_pin.png?fingerprint=be5225eac0413888e70a9d27b4fed5c8","description_icon_url":null,"description_link_url":null,"description":"Simply hop on to start the ride, and get an electric boost with ease!"}},{"id":"7","type":"icons","attributes":{"url":"https://d22d5yy1i19g9i.cloudfront.net/icons/holidays/bonus_santa_pin.png?fingerprint=617d0c2d272476c8da566e5e9cbe6d85","description_icon_url":"https://d22d5yy1i19g9i.cloudfront.net/icons/descriptions/header_bag.png?fingerprint=86f278ea1983169b3464ebfa004a9492","description_link_url":null,"description":"If you ride a bonus bike for five minutes or more, you get a %{amount} off coupon!"}},{"id":"24","type":"icons","attributes":{"url":"https://d22d5yy1i19g9i.cloudfront.net/icons/happy_hour_scooter_pin.png?fingerprint=758c332dfe77a7bbe9a1e8e531b31858","description_icon_url":null,"description_link_url":null,"description":""}},{"id":"25","type":"icons","attributes":{"url":"https://d22d5yy1i19g9i.cloudfront.net/icons/limepod.png?fingerprint=af6642d1ad23dd149e6480e69a21b454","description_icon_url":null,"description_link_url":null,"description":""}},{"id":"26","type":"icons","attributes":{"url":"https://d22d5yy1i19g9i.cloudfront.net/icons/limebike.png?fingerprint=f98a909aafdc2fe9231879649052153e","description_icon_url":null,"description_link_url":null,"description":""}},{"id":"27","type":"icons","attributes":{"url":"https://d22d5yy1i19g9i.cloudfront.net/icons/lime_e_full.png?fingerprint=568cd8a053ea56c6e66c5614539e52fe","description_icon_url":null,"description_link_url":null,"description":""}},{"id":"28","type":"icons","attributes":{"url":"https://d22d5yy1i19g9i.cloudfront.net/icons/lime_s_full.png?fingerprint=5843bd8729fce4d7143a5b3e0f266693","description_icon_url":null,"description_link_url":null,"description":""}},{"id":"37","type":"icons","attributes":{"url":"https://d22d5yy1i19g9i.cloudfront.net/icons/preferred_parking_pin.png?fingerprint=483c05cecc2aba9e8b35a3917aef56fa","description_icon_url":null,"description_link_url":null,"description":""}},{"id":"38","type":"icons","attributes":{"url":"https://d22d5yy1i19g9i.cloudfront.net/icons/cluster_5.png?fingerprint=72729f11b029da495dc317d226107dc5","description_icon_url":null,"description_link_url":null,"description":""}},{"id":"39","type":"icons","attributes":{"url":"https://d22d5yy1i19g9i.cloudfront.net/icons/cluster_10.png?fingerprint=75a5d6ae4f0d65685c89da0aaf76d2fb","description_icon_url":null,"description_link_url":null,"description":""}},{"id":"40","type":"icons","attributes":{"url":"https://d22d5yy1i19g9i.cloudfront.net/icons/cluster_25.png?fingerprint=3566e61760d2526e423e50d0c86e5c98","description_icon_url":null,"description_link_url":null,"description":""}},{"id":"41","type":"icons","attributes":{"url":"https://d22d5yy1i19g9i.cloudfront.net/icons/cluster_100.png?fingerprint=4b0fa4bcd66eac0e8263d7867048dd98","description_icon_url":null,"description_link_url":null,"description":""}},{"id":"42","type":"icons","attributes":{"url":"https://d22d5yy1i19g9i.cloudfront.net/icons/parking_dot.png?fingerprint=aca5f03816e58082eeec688a03faa14d","description_icon_url":null,"description_link_url":null,"description":""}},{"id":"43","type":"icons","attributes":{"url":"https://d22d5yy1i19g9i.cloudfront.net/icons/ebike_super_low_battery.png?fingerprint=3bb5d8f4f8aeb58174b8215b13c05dbf","description_icon_url":null,"description_link_url":null,"description":"translation missing: en.electric_super_low_battery"}},{"id":"44","type":"icons","attributes":{"url":"https://d22d5yy1i19g9i.cloudfront.net/icons/ebike_low_battery.png?fingerprint=0c1ae8acb96f48aba90fb19aa3a172e0","description_icon_url":null,"description_link_url":null,"description":"translation missing: en.electric_low_battery"}},{"id":"45","type":"icons","attributes":{"url":"https://d22d5yy1i19g9i.cloudfront.net/icons/ebike_medium_battery.png?fingerprint=9729adace514261c6e120d3af117cd99","description_icon_url":null,"description_link_url":null,"description":"translation missing: en.electric_medium_battery"}},{"id":"46","type":"icons","attributes":{"url":"https://d22d5yy1i19g9i.cloudfront.net/icons/ebike_high_battery.png?fingerprint=7d658d2053d0a816d9ef414bb17ea0cb","description_icon_url":null,"description_link_url":null,"description":"translation missing: en.electric_high_battery"}},{"id":"47","type":"icons","attributes":{"url":"https://d22d5yy1i19g9i.cloudfront.net/icons/scooter_super_low_battery.png?fingerprint=0cbac9c158ea68d0c0a8a42c3fae1a5a","description_icon_url":null,"description_link_url":null,"description":"translation missing: en.scooter_super_low_battery"}},{"id":"48","type":"icons","attributes":{"url":"https://d22d5yy1i19g9i.cloudfront.net/icons/scooter_low_battery.png?fingerprint=16c59199a716befea4b4d209b3068229","description_icon_url":null,"description_link_url":null,"description":"translation missing: en.scooter_low_battery"}},{"id":"49","type":"icons","attributes":{"url":"https://d22d5yy1i19g9i.cloudfront.net/icons/scooter_medium_battery.png?fingerprint=f523c7e6da6d5103d5754f3aa3d199c1","description_icon_url":null,"description_link_url":null,"description":"translation missing: en.scooter_medium_battery"}},{"id":"50","type":"icons","attributes":{"url":"https://d22d5yy1i19g9i.cloudfront.net/icons/scooter_high_battery.png?fingerprint=a14ab0c75f4838b41729eb1ee746dae9","description_icon_url":null,"description_link_url":null,"description":"translation missing: en.scooter_high_battery"}},{"id":"51","type":"icons","attributes":{"url":"https://d22d5yy1i19g9i.cloudfront.net/icons/preferred_parking_pin_new.png?fingerprint=b8f29ab516443edf90bfa66fe7a2ebe3","description_icon_url":null,"description_link_url":null,"description":""}},{"id":"54","type":"icons","attributes":{"url":"https://d22d5yy1i19g9i.cloudfront.net/icons/electric_jump_pin.png?fingerprint=8870ee50b849a2a30b39d6060c844686","description_icon_url":null,"description_link_url":null,"description":"translation missing: en.electric_jump_super_low_battery"}},{"id":"55","type":"icons","attributes":{"url":"https://d22d5yy1i19g9i.cloudfront.net/icons/electric_jump_low_battery.png?fingerprint=d0efebab235a42e93cb04ead4028cce6","description_icon_url":null,"description_link_url":null,"description":"translation missing: en.electric_jump_low_battery"}},{"id":"56","type":"icons","attributes":{"url":"https://d22d5yy1i19g9i.cloudfront.net/icons/electric_jump_medium_battery.png?fingerprint=9699bef30c6d6e260d404ffd60746283","description_icon_url":null,"description_link_url":null,"description":"translation missing: en.electric_jump_medium_battery"}},{"id":"57","type":"icons","attributes":{"url":"https://d22d5yy1i19g9i.cloudfront.net/icons/electric_jump_high_battery.png?fingerprint=e9b9d8b709434435200b6137c60690c9","description_icon_url":null,"description_link_url":null,"description":"translation missing: en.electric_jump_high_battery"}},{"id":"58","type":"icons","attributes":{"url":"https://d22d5yy1i19g9i.cloudfront.net/icons/scooter_jump_low_battery.png?fingerprint=cadaefcb1b4f24b30753b626284e3b6b","description_icon_url":null,"description_link_url":null,"description":"translation missing: en.scooter_jump_super_low_battery"}},{"id":"59","type":"icons","attributes":{"url":"https://d22d5yy1i19g9i.cloudfront.net/icons/scooter_jump_low_battery.png?fingerprint=d93e01a6cff98058b7cdee22c683d343","description_icon_url":null,"description_link_url":null,"description":"translation missing: en.scooter_jump_low_battery"}},{"id":"60","type":"icons","attributes":{"url":"https://d22d5yy1i19g9i.cloudfront.net/icons/scooter_jump_medium_battery.png?fingerprint=1d8f4e61bbf2fcc8e04b276a0cc7bf4e","description_icon_url":null,"description_link_url":null,"description":"translation missing: en.scooter_jump_medium_battery"}},{"id":"61","type":"icons","attributes":{"url":"https://d22d5yy1i19g9i.cloudfront.net/icons/scooter_jump_high_battery.png?fingerprint=bc702db1c7561541cfbf96438fc76a01","description_icon_url":null,"description_link_url":null,"description":"translation missing: en.scooter_jump_high_battery"}},{"id":"70","type":"icons","attributes":{"url":"https://assets.lime.bike/icons/simplify_unlock/png/ic_electric_40@3x.png?fingerprint=ee9266720d3d98af5434d23de694baec","description_icon_url":null,"description_link_url":null,"description":"translation missing: en.electric"}},{"id":"71","type":"icons","attributes":{"url":"https://assets.lime.bike/icons/simplify_unlock/png/ic_scooter_40@3x.png?fingerprint=ec9f2d24f9650696dfeff487bf2f3109","description_icon_url":null,"description_link_url":null,"description":"translation missing: en.scooter"}},{"id":"338","type":"icons","attributes":{"url":"https://assets.lime.bike/icons/simplify_unlock/png/ic_city_level_pin_40@3x.png?fingerprint=b4424796b0d0059b6ba514ae021a00fc","description_icon_url":null,"description_link_url":null,"description":"translation missing: en.city_level_pin"}},{"id":"339","type":"icons","attributes":{"url":"https://limebike-web-public-assets.s3-us-west-1.amazonaws.com/icons/simplify_unlock/map_pins/pin_LimeScooter_5_active.png?fingerprint=79075dec03cd12fb896d85542c28ec9e","description_icon_url":null,"description_link_url":null,"description":"translation missing: en.pin_LimeScooter_5_active"}},{"id":"340","type":"icons","attributes":{"url":"https://limebike-web-public-assets.s3-us-west-1.amazonaws.com/icons/simplify_unlock/map_pins/pin_LimeScooter_5_inactive.png?fingerprint=db62982ca38a31bdb5cdc38292ad185e","description_icon_url":null,"description_link_url":null,"description":"translation missing: en.pin_LimeScooter_5_inactive"}},{"id":"341","type":"icons","attributes":{"url":"https://limebike-web-public-assets.s3-us-west-1.amazonaws.com/icons/simplify_unlock/map_pins/pin_LimeScooter_10_active.png?fingerprint=95dcf59bc65eaa910d991fb29f8b79c0","description_icon_url":null,"description_link_url":null,"description":"translation missing: en.pin_LimeScooter_10_active"}},{"id":"342","type":"icons","attributes":{"url":"https://limebike-web-public-assets.s3-us-west-1.amazonaws.com/icons/simplify_unlock/map_pins/pin_LimeScooter_10_inactive.png?fingerprint=a610026d149f9bac13235ccac76887a8","description_icon_url":null,"description_link_url":null,"description":"translation missing: en.pin_LimeScooter_10_inactive"}},{"id":"343","type":"icons","attributes":{"url":"https://limebike-web-public-assets.s3-us-west-1.amazonaws.com/icons/simplify_unlock/map_pins/pin_LimeScooter_20_active.png?fingerprint=eb1a63322364533450fd378b9f9a602d","description_icon_url":null,"description_link_url":null,"description":"translation missing: en.pin_LimeScooter_20_active"}},{"id":"344","type":"icons","attributes":{"url":"https://limebike-web-public-assets.s3-us-west-1.amazonaws.com/icons/simplify_unlock/map_pins/pin_LimeScooter_20_inactive.png?fingerprint=ae73cc1d0671e6a71ca3d15cdf296df7","description_icon_url":null,"description_link_url":null,"description":"translation missing: en.pin_LimeScooter_20_inactive"}},{"id":"345","type":"icons","attributes":{"url":"https://limebike-web-public-assets.s3-us-west-1.amazonaws.com/icons/simplify_unlock/map_pins/pin_LimeScooter_30_active.png?fingerprint=54ba656d82e6c12e5ced1fbe2d1a3425","description_icon_url":null,"description_link_url":null,"description":"translation missing: en.pin_LimeScooter_30_active"}},{"id":"346","type":"icons","attributes":{"url":"https://limebike-web-public-assets.s3-us-west-1.amazonaws.com/icons/simplify_unlock/map_pins/pin_LimeScooter_30_inactive.png?fingerprint=c337bad47397948d6194134170931706","description_icon_url":null,"description_link_url":null,"description":"translation missing: en.pin_LimeScooter_30_inactive"}},{"id":"347","type":"icons","attributes":{"url":"https://limebike-web-public-assets.s3-us-west-1.amazonaws.com/icons/simplify_unlock/map_pins/pin_LimeScooter_40_active.png?fingerprint=c1c87f42be019021418859c3bb5f32b2","description_icon_url":null,"description_link_url":null,"description":"translation missing: en.pin_LimeScooter_40_active"}},{"id":"348","type":"icons","attributes":{"url":"https://limebike-web-public-assets.s3-us-west-1.amazonaws.com/icons/simplify_unlock/map_pins/pin_LimeScooter_40_inactive.png?fingerprint=e99d415d84d72fb24076e4477a79373e","description_icon_url":null,"description_link_url":null,"description":"translation missing: en.pin_LimeScooter_40_inactive"}},{"id":"349","type":"icons","attributes":{"url":"https://limebike-web-public-assets.s3-us-west-1.amazonaws.com/icons/simplify_unlock/map_pins/pin_LimeScooter_50_active.png?fingerprint=999f18f39a0e8b3ac9a9ac2a5392e4d7","description_icon_url":null,"description_link_url":null,"description":"translation missing: en.pin_LimeScooter_50_active"}},{"id":"350","type":"icons","attributes":{"url":"https://limebike-web-public-assets.s3-us-west-1.amazonaws.com/icons/simplify_unlock/map_pins/pin_LimeScooter_50_inactive.png?fingerprint=a449970d61407d8b310806e78e1dc7c1","description_icon_url":null,"description_link_url":null,"description":"translation missing: en.pin_LimeScooter_50_inactive"}},{"id":"351","type":"icons","attributes":{"url":"https://limebike-web-public-assets.s3-us-west-1.amazonaws.com/icons/simplify_unlock/map_pins/pin_LimeScooter_60_active.png?fingerprint=d0399468399f8a5d02c278e1f7ad38f9","description_icon_url":null,"description_link_url":null,"description":"translation missing: en.pin_LimeScooter_60_active"}},{"id":"352","type":"icons","attributes":{"url":"https://limebike-web-public-assets.s3-us-west-1.amazonaws.com/icons/simplify_unlock/map_pins/pin_LimeScooter_60_inactive.png?fingerprint=aec2e7720215a394e3e411166af3582d","description_icon_url":null,"description_link_url":null,"description":"translation missing: en.pin_LimeScooter_60_inactive"}},{"id":"353","type":"icons","attributes":{"url":"https://limebike-web-public-assets.s3-us-west-1.amazonaws.com/icons/simplify_unlock/map_pins/pin_LimeScooter_70_active.png?fingerprint=aeff1026ee1f8e024fef1e68bd2698ca","description_icon_url":null,"description_link_url":null,"description":"translation missing: en.pin_LimeScooter_70_active"}},{"id":"354","type":"icons","attributes":{"url":"https://limebike-web-public-assets.s3-us-west-1.amazonaws.com/icons/simplify_unlock/map_pins/pin_LimeScooter_70_inactive.png?fingerprint=bbb1b76025a88c0a391dea136a5e1fc1","description_icon_url":null,"description_link_url":null,"description":"translation missing: en.pin_LimeScooter_70_inactive"}},{"id":"355","type":"icons","attributes":{"url":"https://limebike-web-public-assets.s3-us-west-1.amazonaws.com/icons/simplify_unlock/map_pins/pin_LimeScooter_80_active.png?fingerprint=8620fd408dc32e2085771594dd3fc1cb","description_icon_url":null,"description_link_url":null,"description":"translation missing: en.pin_LimeScooter_80_active"}},{"id":"356","type":"icons","attributes":{"url":"https://limebike-web-public-assets.s3-us-west-1.amazonaws.com/icons/simplify_unlock/map_pins/pin_LimeScooter_80_inactive.png?fingerprint=89e444f7300da811b556d3446e5e0f36","description_icon_url":null,"description_link_url":null,"description":"translation missing: en.pin_LimeScooter_80_inactive"}},{"id":"357","type":"icons","attributes":{"url":"https://limebike-web-public-assets.s3-us-west-1.amazonaws.com/icons/simplify_unlock/map_pins/pin_LimeScooter_90_active.png?fingerprint=cbe217e1343e06e9c5a6ff8f288ac6aa","description_icon_url":null,"description_link_url":null,"description":"translation missing: en.pin_LimeScooter_90_active"}},{"id":"358","type":"icons","attributes":{"url":"https://limebike-web-public-assets.s3-us-west-1.amazonaws.com/icons/simplify_unlock/map_pins/pin_LimeScooter_90_inactive.png?fingerprint=dd4718b6b8b93a8f16879bf75858f4b4","description_icon_url":null,"description_link_url":null,"description":"translation missing: en.pin_LimeScooter_90_inactive"}},{"id":"359","type":"icons","attributes":{"url":"https://limebike-web-public-assets.s3-us-west-1.amazonaws.com/icons/simplify_unlock/map_pins/pin_LimeScooter_100_active.png?fingerprint=6eccbd158947ccd1acb41bcfbe1cc390","description_icon_url":null,"description_link_url":null,"description":"translation missing: en.pin_LimeScooter_100_active"}},{"id":"360","type":"icons","attributes":{"url":"https://limebike-web-public-assets.s3-us-west-1.amazonaws.com/icons/simplify_unlock/map_pins/pin_LimeScooter_100_inactive.png?fingerprint=6eed94876944358419bf647ed5b2c270","description_icon_url":null,"description_link_url":null,"description":"translation missing: en.pin_LimeScooter_100_inactive"}},{"id":"361","type":"icons","attributes":{"url":"https://limebike-web-public-assets.s3-us-west-1.amazonaws.com/icons/simplify_unlock/map_pins/pin_LimeBike_5_active.png?fingerprint=ad3d4ac40697c34dce78972c84f72e4c","description_icon_url":null,"description_link_url":null,"description":"translation missing: en.pin_LimeBike_5_active"}},{"id":"362","type":"icons","attributes":{"url":"https://limebike-web-public-assets.s3-us-west-1.amazonaws.com/icons/simplify_unlock/map_pins/pin_LimeBike_5_inactive.png?fingerprint=f0c8bebddf43e2d3bb5edc1953f4138d","description_icon_url":null,"description_link_url":null,"description":"translation missing: en.pin_LimeBike_5_inactive"}},{"id":"363","type":"icons","attributes":{"url":"https://limebike-web-public-assets.s3-us-west-1.amazonaws.com/icons/simplify_unlock/map_pins/pin_LimeBike_10_active.png?fingerprint=0d429f461b7f642798ece32e32bd3258","description_icon_url":null,"description_link_url":null,"description":"translation missing: en.pin_LimeBike_10_active"}},{"id":"364","type":"icons","attributes":{"url":"https://limebike-web-public-assets.s3-us-west-1.amazonaws.com/icons/simplify_unlock/map_pins/pin_LimeBike_10_inactive.png?fingerprint=385b59b5a1ac7013e369671ae860bbf3","description_icon_url":null,"description_link_url":null,"description":"translation missing: en.pin_LimeBike_10_inactive"}},{"id":"365","type":"icons","attributes":{"url":"https://limebike-web-public-assets.s3-us-west-1.amazonaws.com/icons/simplify_unlock/map_pins/pin_LimeBike_20_active.png?fingerprint=d8e49c1009333ab034226ce3d1248f03","description_icon_url":null,"description_link_url":null,"description":"translation missing: en.pin_LimeBike_20_active"}},{"id":"366","type":"icons","attributes":{"url":"https://limebike-web-public-assets.s3-us-west-1.amazonaws.com/icons/simplify_unlock/map_pins/pin_LimeBike_20_inactive.png?fingerprint=d9f1caf545c8e92b82f9b03e9821b111","description_icon_url":null,"description_link_url":null,"description":"translation missing: en.pin_LimeBike_20_inactive"}},{"id":"367","type":"icons","attributes":{"url":"https://limebike-web-public-assets.s3-us-west-1.amazonaws.com/icons/simplify_unlock/map_pins/pin_LimeBike_30_active.png?fingerprint=761b86c1033220e37d0c413de997011a","description_icon_url":null,"description_link_url":null,"description":"translation missing: en.pin_LimeBike_30_active"}},{"id":"368","type":"icons","attributes":{"url":"https://limebike-web-public-assets.s3-us-west-1.amazonaws.com/icons/simplify_unlock/map_pins/pin_LimeBike_30_inactive.png?fingerprint=62f7b63fbc5c6f1b1769dfa54b30eddd","description_icon_url":null,"description_link_url":null,"description":"translation missing: en.pin_LimeBike_30_inactive"}},{"id":"369","type":"icons","attributes":{"url":"https://limebike-web-public-assets.s3-us-west-1.amazonaws.com/icons/simplify_unlock/map_pins/pin_LimeBike_40_active.png?fingerprint=ca99c622d57651ee4d4967e4fe446764","description_icon_url":null,"description_link_url":null,"description":"translation missing: en.pin_LimeBike_40_active"}},{"id":"370","type":"icons","attributes":{"url":"https://limebike-web-public-assets.s3-us-west-1.amazonaws.com/icons/simplify_unlock/map_pins/pin_LimeBike_40_inactive.png?fingerprint=82358828a4587832d577d3cf8e8c9c8c","description_icon_url":null,"description_link_url":null,"description":"translation missing: en.pin_LimeBike_40_inactive"}},{"id":"371","type":"icons","attributes":{"url":"https://limebike-web-public-assets.s3-us-west-1.amazonaws.com/icons/simplify_unlock/map_pins/pin_LimeBike_50_active.png?fingerprint=f8a872db641d4af9e19c1413d0cc5550","description_icon_url":null,"description_link_url":null,"description":"translation missing: en.pin_LimeBike_50_active"}},{"id":"372","type":"icons","attributes":{"url":"https://limebike-web-public-assets.s3-us-west-1.amazonaws.com/icons/simplify_unlock/map_pins/pin_LimeBike_50_inactive.png?fingerprint=8ad693da6d9cfb69f783bc53d6d2bce3","description_icon_url":null,"description_link_url":null,"description":"translation missing: en.pin_LimeBike_50_inactive"}},{"id":"373","type":"icons","attributes":{"url":"https://limebike-web-public-assets.s3-us-west-1.amazonaws.com/icons/simplify_unlock/map_pins/pin_LimeBike_60_active.png?fingerprint=d8c91e13a0a45c84f13edd5cf397b0ec","description_icon_url":null,"description_link_url":null,"description":"translation missing: en.pin_LimeBike_60_active"}},{"id":"374","type":"icons","attributes":{"url":"https://limebike-web-public-assets.s3-us-west-1.amazonaws.com/icons/simplify_unlock/map_pins/pin_LimeBike_60_inactive.png?fingerprint=f61ea7cc4c429c1e5e16cdf216053ad1","description_icon_url":null,"description_link_url":null,"description":"translation missing: en.pin_LimeBike_60_inactive"}},{"id":"375","type":"icons","attributes":{"url":"https://limebike-web-public-assets.s3-us-west-1.amazonaws.com/icons/simplify_unlock/map_pins/pin_LimeBike_70_active.png?fingerprint=dd911c26d8c7d76f5e6d4196344c1f46","description_icon_url":null,"description_link_url":null,"description":"translation missing: en.pin_LimeBike_70_active"}},{"id":"376","type":"icons","attributes":{"url":"https://limebike-web-public-assets.s3-us-west-1.amazonaws.com/icons/simplify_unlock/map_pins/pin_LimeBike_70_inactive.png?fingerprint=defe995259f3a9194a0265088c3ef3fc","description_icon_url":null,"description_link_url":null,"description":"translation missing: en.pin_LimeBike_70_inactive"}},{"id":"377","type":"icons","attributes":{"url":"https://limebike-web-public-assets.s3-us-west-1.amazonaws.com/icons/simplify_unlock/map_pins/pin_LimeBike_80_active.png?fingerprint=aff83db892d9edeb8f65cc069a8d6c6b","description_icon_url":null,"description_link_url":null,"description":"translation missing: en.pin_LimeBike_80_active"}},{"id":"378","type":"icons","attributes":{"url":"https://limebike-web-public-assets.s3-us-west-1.amazonaws.com/icons/simplify_unlock/map_pins/pin_LimeBike_80_inactive.png?fingerprint=4a460e69c4bca107cc50edf113ad01fa","description_icon_url":null,"description_link_url":null,"description":"translation missing: en.pin_LimeBike_80_inactive"}},{"id":"379","type":"icons","attributes":{"url":"https://limebike-web-public-assets.s3-us-west-1.amazonaws.com/icons/simplify_unlock/map_pins/pin_LimeBike_90_active.png?fingerprint=7577ed50f89a418d724e71fa1ed36fcb","description_icon_url":null,"description_link_url":null,"description":"translation missing: en.pin_LimeBike_90_active"}},{"id":"380","type":"icons","attributes":{"url":"https://limebike-web-public-assets.s3-us-west-1.amazonaws.com/icons/simplify_unlock/map_pins/pin_LimeBike_90_inactive.png?fingerprint=dcb976d594101d2587634cf15a17f280","description_icon_url":null,"description_link_url":null,"description":"translation missing: en.pin_LimeBike_90_inactive"}},{"id":"381","type":"icons","attributes":{"url":"https://limebike-web-public-assets.s3-us-west-1.amazonaws.com/icons/simplify_unlock/map_pins/pin_LimeBike_100_active.png?fingerprint=d03428e3658fd92a395253772f5a392e","description_icon_url":null,"description_link_url":null,"description":"translation missing: en.pin_LimeBike_100_active"}},{"id":"382","type":"icons","attributes":{"url":"https://limebike-web-public-assets.s3-us-west-1.amazonaws.com/icons/simplify_unlock/map_pins/pin_LimeBike_100_inactive.png?fingerprint=8ca44f25da7a0bd79784a033547ececb","description_icon_url":null,"description_link_url":null,"description":"translation missing: en.pin_LimeBike_100_inactive"}}],"current_level":"block","levels":{"region":7.0,"subregion":11.0,"city":14.0},"most_recent_trip":null,"banner":{"id":"BBWRLDFZIJCHK","type":"banners","attributes":{"text":"30 Days unlimited rides for just 39€.","button_action":"url_link","button_text":"Buy now","button_link":"limebike://limelab?url_to_open=https://webviews.lime.bike/module/limepass/?_category=unlimited_month_pass","title_text":"Pay less, ride more","icon_url":null,"text_color":null,"background_color":null,"button_text_color":null,"button_text_background_color":null,"button_border_color":"#05C500","title_text_color":null}},"donation_organization":{"id":"NTDO7U7ME5XS6","type":"donation_organizations","attributes":{"name":"Deutsches Rotes Kreuz","description":"Einmal aktiviert, rundest Du mit dem LimeHero-Programm automatisch jede Deiner Fahrten auf den nächsten Euro auf und Du spendest den Betrag an das Deutsche Rote Kreuz. Das Deutsche Rote Kreuz ist Teil der weltweiten Gemeinschaft der internationalen Rotkreuz- und Rothalbmondbewegung, die den Opfern von Konflikten und Katastrophen und anderen Bedürftigen allein nach dem Maß der Not Hilfe leistet. Wir handeln im Namen der Menschlichkeit für das Leben, die Gesundheit, das Wohlbefinden, den Schutz, das friedliche Miteinander und die Würde aller Menschen, in Deutschland und in 44 Ländern weltweit.","image_url":"","website_url":"https://www.drk.de/"}},"parking_spots_radius_meters":20,"map_pins":[],"group_ride_id":null,"group_ride_participants":null,"current_trip_pin":null}},"meta":{"latest_user_agreement_version":"3","min_ios_version":"2.11.0","min_android_code":93,"flags":"IOS_VERSION_V1.0,ANDROID_VERSION_V1.0","groups":{"cvv_optional":false,"enable_stripe_sca_flow":true,"auto_reload_on_by_default":true,"auto_reload_always_enabled":false,"remove_add_balance_confirmation":false,"scooter_reservation":true,"show_group_ride_tutorial":true,"use_client_groups":false,"use_moshi":false,"android_trip_events_refactor":true,"android_how_to_ride_tutorial":true,"timeout_retry":false,"auto_reload_experience_updates":true,"id_scan_show_manual_delay_sec":15,"show_loyalty":true,"cancel_reserve_red_button":true,"show_self_help":false,"show_loyalty_spend_points":false,"ride_history_with_pagination":true,"zone_messaging_enabled":true,"comfort_ride_enabled":false,"map_style_with_poi":false,"recommend_nearby_bike_v2":true,"customized_speed_cap_enabled":false,"request_bluetooth_permission_at_unlock_screen":false,"group_ride":false,"use_banner_v2":true,"top_banner_carousel":false,"server_side_id_verification":true,"use_tutorial_v2":true,"donation_group":"donation_round_up","use_new_microblink":true,"map_improvements":{"battery_sort":true,"cache_zones":true,"clustering":true,"fetch_zones":false,"icons":true},"use_trip_summary_v2":true,"use_app_refresh_theme":false,"simplify_unlock_new_map_experience":true,"use_referrals_v2":false,"zip_code_country_selector":true,"complete_trip_before_take_photo":true,"unlock_button_group":"white_bar","default_to_unlock_group":"control","area_rate_plan_on_scanner":true,"backend_driven_trip_rating":true,"bike_reservation":true,"enable_promo_notification_optout":true,"show_auto_reload":true,"map_levels_v1":true,"braze_integration":true,"take_photo":"find_my_ride","show_battery_level_on_map":true,"unlock_confirmation":false,"short_stop":true,"bluetooth_unlock":true,"parked_or_not":false,"branch_link_referral":true,"persist_rate_ride":true,"no_header_map":true,"fetch_end_trip_experience":true,"long_pause_group":false,"group_ride_v2":false,"group_ride_max_rider_cap":"5","group_ride_max_guest_cap":"10","group_ride_revamp":true,"group_ride_revamp_two_point_one":true,"id_scanner":"google_vision","new_method_completing_trip":true,"enable_new_payment_blocker":false,"payment_creation_ui":true,"enable_google_pay":true,"apple_pay":true,"card_scanner":"use_dyneti_scanner","paypal_payment_method":true,"payment_zip_code":true,"klarna_payment_method":false,"map_balance_icon":false,"payments":{"cvv_optional":false,"payment_card_io_scan":false,"payment_creation_ui":true,"payment_billing_address":false,"payment_cardholder_name":false,"payment_zip_code":true},"payment_billing_address":false,"apple_pay_address_ui":false,"payment_cardholder_name":false,"juicer_earnings_notification":true,"juicer_satellite_mode":true,"juicer_level_2":true,"ios_juicer_rebalance_v1":false,"android_juicer_rebalance_v1":false,"juicer_hide_scooter_details":false,"enable_juicer_mock_gps_blocker":true,"enable_juicer_settings":true,"enable_juicer_in_app_message":true,"ios_juicer_multi_task_v1":true,"android_juicer_multi_task_v1":true,"android_upload_juicer_attributes":true,"enable_juicer_endpoint_v2":true,"juicer_bluetooth_unlock":false,"android_enable_backend_driven_cancel_task":true,"android_tooltip_v2":true,"android_enable_bulk_scan_of_deploy_tasks":null,"ios_juicer_task_bundle":null,"android_juicer_task_bundle":null,"enable_juicer_vat_profile":null,"enable_juicer_backend_banner":false,"enable_juicer_in_app_funnel":false,"use_backend_driven_earn_with_lime_button":true,"use_backend_driven_switch_to_juicer_mode_button":true,"use_juicer_scanner_v2":null,"edit_email_magic_link":false},"trip_id":null,"trip_status":null,"group_id":null,"group_ride_status":null,"group_ride_version":"legacy","notifications":[],"messages":[],"country_code":"KR","user_agreement_version":3,"user_agreement_country_code":"KR","need_to_show_agreement":false,"user_agreement_url":"https://li.me/user-agreement/kr","user_agreement_title":"We've Updated Our User Agreement","user_agreement_message":"By tapping \"I Agree\" You confirm that You have read, understood, and agreed to Lime’s updated User Agreement.","user_agreement_primary_button":"I Agree","user_agreement_view_terms_button":"View Agreement","need_to_show_group_ride_agreement":true,"current_rental_id":null,"current_rental_status":null}}